Player,bbref_link,bbref_id,career_ppg,birth_location,birth_country,State,City,start_year,end_year,high_school_state,high_school_city,high_school_name,all_star_appearances,Location,Latitude,Longitude,Country
Michael Ansley,/players/a/anslemi01.html,anslemi01,6.9,Alabama,US,AL,Birmingham,1990,1992,Alabama,Birmingham,Jackson-Olin,0,"Birmingham, Alabama",33.5206824,-86.8024326,USA
Keith Askins,/players/a/askinke01.html,askinke01,3.8,Alabama,US,AL,Athens,1991,1999,Alabama,Athens,Athens,0,"Athens, Alabama",34.8045487,-86.9711698,USA
Carl Bailey,/players/b/baileca01.html,baileca01,2.0,Alabama,US,AL,Birmingham,1982,1982,Alabama,Birmingham,Jackson-Olin,0,"Birmingham, Alabama",33.5206824,-86.8024326,USA
Charles Barkley,/players/b/barklch01.html,barklch01,22.1,Alabama,US,AL,Leeds,1985,2000,Alabama,Leeds,Leeds,11,"Leeds, Alabama",33.5439212,-86.5427551,USA
Eric Bledsoe,/players/b/bledser01.html,bledser01,14.2,Alabama,US,AL,Birmingham,2011,2020,Alabama,Birmingham,A.H. Parker,0,"Birmingham, Alabama",33.5206824,-86.8024326,USA
Tom Boswell,/players/b/bosweto01.html,bosweto01,7.7,Alabama,US,AL,Montgomery,1976,1984,Alabama,Montgomery,Carver,0,"Montgomery, Alabama",32.3669656,-86.3006485,USA
David Bustion,/players/b/bustida01.html,bustida01,3.4,Alabama,US,AL,Gadsden,1973,1973,,,,0,"Gadsden, Alabama",34.0128323,-86.0030251,USA
Jason Caffey,/players/c/caffeja01.html,caffeja01,7.3,Alabama,US,AL,Mobile,1996,2003,Alabama,Mobile,Davidson,0,"Mobile, Alabama",30.6913462,-88.0437509,USA
DeMarre Carroll,/players/c/carrode01.html,carrode01,8.9,Alabama,US,AL,Birmingham,2010,2020,Alabama,Birmingham,John Carroll,0,"Birmingham, Alabama",33.5206824,-86.8024326,USA
Bobby Cattage,/players/c/cattabo01.html,cattabo01,3.1,Alabama,US,AL,Huntsville,1982,1986,Alabama,Huntsville,J.O. Johnson,0,"Huntsville, Alabama",34.729847,-86.5859011,USA
Derrick Coleman,/players/c/colemde01.html,colemde01,16.5,Alabama,US,AL,Mobile,1991,2005,Michigan,Detroit,Detroit Northern,1,"Mobile, Alabama",30.6913462,-88.0437509,USA
DeMarcus Cousins,/players/c/couside01.html,couside01,21.2,Alabama,US,AL,Mobile,2011,2019,Alabama,Mobile,LeFlore Magnet,4,"Mobile, Alabama",30.6913462,-88.0437509,USA
Michael Curry,/players/c/currymi01.html,currymi01,4.5,Alabama,US,AL,Anniston,1994,2005,Georgia,Augusta,Glenn Hills,0,"Anniston, Alabama",33.6624824,-85.8283224,USA
Fennis Dembo,/players/d/dembofe01.html,dembofe01,1.2,Alabama,US,AL,Mobile,1989,1989,Texas,San Antonio,Fox Tech,0,"Mobile, Alabama",30.6913462,-88.0437509,USA
John Douglas,/players/d/dougljo01.html,dougljo01,6.7,Alabama,US,AL,Town Creek,1982,1983,Alabama,Leighton,Colbert County,0,"Town Creek, Alabama",34.6812012,-87.4061342,USA
Leon Douglas,/players/d/douglle01.html,douglle01,7.9,Alabama,US,AL,Leighton,1977,1983,Alabama,Leighton,Colbert County,0,"Leighton, Alabama",34.700923,-87.5289152,USA
John Drew,/players/d/drewjo01.html,drewjo01,20.7,Alabama,US,AL,Vredenburgh,1975,1985,Alabama,Beatrice,J.F. Shields,2,"Vredenburgh, Alabama",31.8284857,-87.3216563,USA
T.R. Dunn,/players/d/dunntr01.html,dunntr01,5.1,Alabama,US,AL,Birmingham,1978,1991,Alabama,Birmingham,West End,0,"Birmingham, Alabama",33.5206824,-86.8024326,USA
Jim Farmer,/players/f/farmeji01.html,farmeji01,5.3,Alabama,US,AL,Dothan,1988,1994,Alabama,Dothan,Houston Academy,0,"Dothan, Alabama",31.2237285,-85.3934375,USA
Rod Foster,/players/f/fostero01.html,fostero01,7.5,Alabama,US,AL,Birmingham,1984,1986,Connecticut,New Britain,Saint Thomas Aquinas,0,"Birmingham, Alabama",33.5206824,-86.8024326,USA
Mickell Gladness,/players/g/gladnmi01.html,gladnmi01,2.2,Alabama,US,AL,Birmingham,2012,2012,Alabama,Sylacauga,Sylacauga,0,"Birmingham, Alabama",33.5206824,-86.8024326,USA
Orlando Graham,/players/g/grahaor01.html,grahaor01,1.1,Alabama,US,AL,Montgomery,1989,1989,Alabama,Montgomery,Sidney Lanier,0,"Montgomery, Alabama",32.3669656,-86.3006485,USA
Travis Grant,/players/g/granttr01.html,granttr01,13.8,Alabama,US,AL,Clayton,1973,1976,Alabama,Clayton,Barbour County Training School,0,"Clayton, Alabama",31.8782162,-85.4496627,USA
JaMychal Green,/players/g/greenja01.html,greenja01,8.1,Alabama,US,AL,Montgomery,2015,2020,Alabama,Montgomery,St. Jude,0,"Montgomery, Alabama",32.3669656,-86.3006485,USA
Lamar Green,/players/g/greenla01.html,greenla01,5.2,Alabama,US,AL,Birmingham,1970,1975,Alabama,Birmingham,Carver,0,"Birmingham, Alabama",33.5206824,-86.8024326,USA
Donta Hall,/players/h/halldo01.html,halldo01,1.5,Alabama,US,AL,Luverne,2020,2020,Alabama,Luverne,Luverne HS,0,"Luverne, Alabama",31.7165455,-86.2638492,USA
Darrin Hancock,/players/h/hancoda01.html,hancoda01,3.5,Alabama,US,AL,Birmingham,1995,1997,Georgia,Griffin,Griffin,0,"Birmingham, Alabama",33.5206824,-86.8024326,USA
Cecil Hankins,/players/h/hankice01.html,hankice01,4.9,Alabama,US,AL,Covin,1947,1948,Oklahoma,Ardmore,Zaneis Consolidated,0,"Covin, Alabama",33.6901097,-87.8891877,USA
James Hardy,/players/h/hardyja01.html,hardyja01,5.7,Alabama,US,AL,Knoxville,1979,1982,California,Long Beach,Jordan,0,"Knoxville, Alabama",32.9923471,-87.7905674,USA
Johnny High,/players/h/highjo01.html,highjo01,5.1,Alabama,US,AL,Birmingham,1980,1984,Alabama,Birmingham,Jones Valley,0,"Birmingham, Alabama",33.5206824,-86.8024326,USA
Cedrick Hordges,/players/h/hordgce01.html,hordgce01,7.6,Alabama,US,AL,Montgomery,1981,1982,Alabama,Montgomery,Robert E. Lee,0,"Montgomery, Alabama",32.3669656,-86.3006485,USA
Robert Horry,/players/h/horryro01.html,horryro01,7.0,Alabama,US,AL,Andalusia,1993,2008,Alabama,Andalusia,Andalusia,0,"Andalusia, Alabama",31.3080607,-86.482424,USA
Elvin Ivory,/players/i/ivoryel01.html,ivoryel01,4.4,Alabama,US,AL,Birmingham,1969,1969,Alabama,Birmingham,Hayes,0,"Birmingham, Alabama",33.5206824,-86.8024326,USA
Stanley Jackson,/players/j/jacksst01.html,jacksst01,2.2,Alabama,US,AL,Tuskegee,1994,1994,Alabama,Valley,Valley,0,"Tuskegee, Alabama",32.4240535,-85.6908715,USA
Henry James,/players/j/jameshe01.html,jameshe01,6.1,Alabama,US,AL,Centreville,1991,1998,Indiana,Fort Wayne,North Side,0,"Centreville, Alabama",32.9445682,-87.1386067,USA
Buck Johnson,/players/j/johnsbu01.html,johnsbu01,9.1,Alabama,US,AL,Birmingham,1987,1993,Alabama,Birmingham,Hayes,0,"Birmingham, Alabama",33.5206824,-86.8024326,USA
Ken Johnson,/players/j/johnske01.html,johnske01,4.1,Alabama,US,AL,Tuskegee,1986,1986,California,La Jolla,La Jolla,0,"Tuskegee, Alabama",32.4240535,-85.6908715,USA
Nate Johnston,/players/j/johnsna01.html,johnsna01,2.2,Alabama,US,AL,Birmingham,1990,1990,Florida,Belle Glade,Belle Glade,0,"Birmingham, Alabama",33.5206824,-86.8024326,USA
Edgar Jones,/players/j/jonesed01.html,jonesed01,9.0,Alabama,US,AL,Fort Rucker,1981,1986,New Jersey,Newark,Barringer,0,"Fort Rucker, Alabama",31.3499557,-85.71403605213936,USA
Walter Jordan,/players/j/jordawa01.html,jordawa01,2.3,Alabama,US,AL,Perry,1981,1981,Indiana,Fort Wayne,Northrop,0,"Perry, Alabama",32.6421387,-87.2876639,USA
Larry Kenon,/players/k/kenonla01.html,kenonla01,17.2,Alabama,US,AL,Birmingham,1974,1983,Alabama,Birmingham,Ullman,5,"Birmingham, Alabama",33.5206824,-86.8024326,USA
Warren Kidd,/players/k/kiddwa01.html,kiddwa01,3.6,Alabama,US,AL,Harpersville,1994,1994,Alabama,Vincent,Vincent,0,"Harpersville, Alabama",33.3439995,-86.4380357,USA
Stan Kimbrough,/players/k/kimbrst01.html,kimbrst01,1.6,Alabama,US,AL,Tuscaloosa,1990,1993,Ohio,Cleveland,St. Joseph,0,"Tuscaloosa, Alabama",33.2095614,-87.5675258,USA
Reggie King,/players/k/kingre01.html,kingre01,8.9,Alabama,US,AL,Birmingham,1980,1985,Alabama,Birmingham,Jackson-Olin,0,"Birmingham, Alabama",33.5206824,-86.8024326,USA
Antonio Lang,/players/l/langan02.html,langan02,2.3,Alabama,US,AL,Mobile,1995,2000,Alabama,Mobile,LeFlore Magnet,0,"Mobile, Alabama",30.6913462,-88.0437509,USA
James Lang,/players/l/langja01.html,langja01,1.0,Alabama,US,AL,Mobile,2007,2007,Alabama,Birmingham,Central Park Christian,0,"Mobile, Alabama",30.6913462,-88.0437509,USA
Josh Magette,/players/m/magetjo01.html,magetjo01,2.2,Alabama,US,AL,Birmingham,2018,2020,Alabama,Hoover,Spain Park,0,"Birmingham, Alabama",33.5206824,-86.8024326,USA
Jeff Malone,/players/m/malonje01.html,malonje01,19.0,Alabama,US,AL,Mobile,1984,1996,Georgia,Macon,Southwest,2,"Mobile, Alabama",30.6913462,-88.0437509,USA
Keith McCord,/players/m/mccorke01.html,mccorke01,2.0,Alabama,US,AL,Birmingham,1981,1981,Alabama,Birmingham,West End,0,"Birmingham, Alabama",33.5206824,-86.8024326,USA
K.J. McDaniels,/players/m/mcdankj01.html,mcdankj01,5.3,Alabama,US,AL,Mobile,2015,2017,Alabama,Birmingham,Central Park Christian School,0,"Mobile, Alabama",30.6913462,-88.0437509,USA
George McGinnis,/players/m/mcginge01.html,mcginge01,20.2,Alabama,US,AL,Harpersville,1972,1982,Indiana,Indianapolis,George Washington,6,"Harpersville, Alabama",33.3439995,-86.4380357,USA
Thales McReynolds,/players/m/mcreyth01.html,mcreyth01,0.6,Alabama,US,AL,Birmingham,1966,1966,,,,0,"Birmingham, Alabama",33.5206824,-86.8024326,USA
Joe Meriweather,/players/m/meriwjo01.html,meriwjo01,8.1,Alabama,US,AL,Phenix City,1976,1985,Alabama,Phenix City,Central,0,"Phenix City, Alabama",32.4709761,-85.0007653,USA
Larry Moffett,/players/m/moffela01.html,moffela01,0.8,Alabama,US,AL,Mobile,1978,1978,,,,0,"Mobile, Alabama",30.6913462,-88.0437509,USA
Jamario Moon,/players/m/moonja01.html,moonja01,6.3,Alabama,US,AL,Goodwater,2008,2012,Alabama,Rockford,Coosa Central,0,"Goodwater, Alabama",33.0637706,-86.0538692,USA
Allen Murphy,/players/m/murphal01.html,murphal01,3.8,Alabama,US,AL,Birmingham,1976,1977,Alabama,Birmingham,A.H. Parker,0,"Birmingham, Alabama",33.5206824,-86.8024326,USA
Pete Myers,/players/m/myerspe01.html,myerspe01,4.8,Alabama,US,AL,Mobile,1987,1998,Alabama,Mobile,Williamson,0,"Mobile, Alabama",30.6913462,-88.0437509,USA
Wiley Peck,/players/p/peckwi01.html,peckwi01,3.5,Alabama,US,AL,Montgomery,1980,1980,Alabama,Montgomery,Robert E. Lee,0,"Montgomery, Alabama",32.3669656,-86.3006485,USA
Chuck Person,/players/p/persoch01.html,persoch01,14.7,Alabama,US,AL,Brantley,1987,2000,Alabama,Brantley,Brantley,0,"Brantley, Alabama",31.5823832,-86.2571786,USA
Wesley Person,/players/p/persowe01.html,persowe01,11.2,Alabama,US,AL,Crenshaw,1995,2005,Alabama,Brantley,Brantley,0,"Crenshaw, Alabama",31.6809362,-86.3244009,USA
Eddie Phillips,/players/p/philled01.html,philled01,3.2,Alabama,US,AL,Birmingham,1983,1983,Alabama,Birmingham,A.H. Parker,0,"Birmingham, Alabama",33.5206824,-86.8024326,USA
Stan Pietkiewicz,/players/p/pietkst01.html,pietkst01,3.9,Alabama,US,AL,Huntsville,1979,1981,Florida,Winter Park,Winter Park,0,"Huntsville, Alabama",34.729847,-86.5859011,USA
Chris Porter,/players/p/portech01.html,portech01,8.6,Alabama,US,AL,Abbeville,2001,2001,Alabama,Abbeville,Abbeville,0,"Abbeville, Alabama",31.5702088,-85.2503315,USA
Cal Ramsey,/players/r/ramseca01.html,ramseca01,7.9,Alabama,US,AL,Selma,1960,1961,New York,New York,Commerce,0,"Selma, Alabama",32.4078632,-87.0207473,USA
Theo Ratliff,/players/r/ratlith01.html,ratlith01,7.2,Alabama,US,AL,Demopolis,1996,2011,Alabama,Demopolis,Demopolis,1,"Demopolis, Alabama",32.5178284,-87.8368201,USA
Oliver Robinson,/players/r/robinol01.html,robinol01,2.9,Alabama,US,AL,Birmingham,1983,1983,Alabama,Birmingham,Woodlawn,0,"Birmingham, Alabama",33.5206824,-86.8024326,USA
Roy Rogers,/players/r/rogerro02.html,rogerro02,4.8,Alabama,US,AL,Linden,1997,2000,Alabama,Linden,Linden,0,"Linden, Alabama",32.3062535,-87.7980665,USA
Curtis Rowe,/players/r/rowecu01.html,rowecu01,11.6,Alabama,US,AL,Bessemer,1972,1979,California,Los Angeles,John C. Fremont,1,"Bessemer, Alabama",33.4017766,-86.954437,USA
Willie Scott,/players/s/scottwi01.html,scottwi01,1.6,Alabama,US,AL,Gadsden,1970,1970,,,,0,"Gadsden, Alabama",34.0128323,-86.0030251,USA
Walter Sharpe,/players/s/sharpwa01.html,sharpwa01,1.0,Alabama,US,AL,Huntsville,2009,2009,Alabama,Birmingham,A.H. Parker,0,"Huntsville, Alabama",34.729847,-86.5859011,USA
Johnny Simmons,/players/s/simmojo01.html,simmojo01,5.3,Alabama,US,AL,Birmingham,1947,1947,,,,0,"Birmingham, Alabama",33.5206824,-86.8024326,USA
Doug Sims,/players/s/simsdo01.html,simsdo01,1.0,Alabama,US,AL,Elba,1969,1969,,,,0,"Elba, Alabama",31.4146108,-86.0677243,USA
Bud Stallworth,/players/s/stallbu01.html,stallbu01,7.7,Alabama,US,AL,Hartselle,1973,1977,Alabama,Hartselle,Morgan County Training School,0,"Hartselle, Alabama",34.4434282,-86.9352842,USA
Erick Strickland,/players/s/stricer01.html,stricer01,7.5,Alabama,US,AL,Opelika,1997,2005,Nebraska,Bellevue,West,0,"Opelika, Alabama",32.6454116,-85.3782795,USA
Emanuel Terry,/players/t/terryem01.html,terryem01,3.3,Alabama,US,AL,Birmingham,2019,2019,Alabama,Cleveland,Cleveland HS,0,"Birmingham, Alabama",33.5206824,-86.8024326,USA
Andrew Toney,/players/t/toneyan01.html,toneyan01,15.9,Alabama,US,AL,Birmingham,1981,1988,Alabama,Birmingham,Glenn,2,"Birmingham, Alabama",33.5206824,-86.8024326,USA
Ben Wallace,/players/w/wallabe01.html,wallabe01,5.7,Alabama,US,AL,White Hall,1997,2012,Alabama,Hayneville,Central,4,"White Hall, Alabama",32.3270827,-86.7119247,USA
Gerald Wallace,/players/w/wallage01.html,wallage01,11.9,Alabama,US,AL,Sylacauga,2002,2015,Alabama,Childersburg,Childersburg,1,"Sylacauga, Alabama",33.1731716,-86.2516406,USA
Marcus Webb,/players/w/webbma01.html,webbma01,4.3,Alabama,US,AL,Montgomery,1993,1993,Alabama,Montgomery,Sidney Lanier,0,"Montgomery, Alabama",32.3669656,-86.3006485,USA
Mario West,/players/w/westma02.html,westma02,1.0,Alabama,US,AL,Huntsville,2008,2011,Georgia,Douglasville,Douglas County,0,"Huntsville, Alabama",34.729847,-86.5859011,USA
Ennis Whatley,/players/w/whatlen01.html,whatlen01,5.6,Alabama,US,AL,Birmingham,1984,1997,Alabama,Birmingham,Phillips,0,"Birmingham, Alabama",33.5206824,-86.8024326,USA
D.J. White,/players/w/whitedj01.html,whitedj01,5.9,Alabama,US,AL,Tuscaloosa,2009,2014,Alabama,Tuscaloosa,Hillcrest,0,"Tuscaloosa, Alabama",33.2095614,-87.5675258,USA
Rory White,/players/w/whitero01.html,whitero01,7.4,Alabama,US,AL,Tuskegee,1983,1987,Alabama,Tuskegee,Tuskegee,0,"Tuskegee, Alabama",32.4240535,-85.6908715,USA
D.C. Wilcutt,/players/w/wilcudc01.html,wilcudc01,2.2,Alabama,US,AL,Patton,1949,1950,Missouri,Wellston,Normandy,0,"Patton, Alabama",33.7006664,-87.4547278,USA
Duck Williams,/players/w/willidu01.html,willidu01,6.6,Alabama,US,AL,Demopolis,1980,1980,District of Columbia,Washington,Mackin,0,"Demopolis, Alabama",32.5178284,-87.8368201,USA
Mario Chalmers,/players/c/chalmma01.html,chalmma01,8.9,Alaska,US,AK,Anchorage,2009,2018,Alaska,Anchorage,Bartlett,0,"Anchorage, Alaska",61.1758781,-149.1107333,USA
Mark Alarie,/players/a/alarima01.html,alarima01,7.5,Arizona,US,AZ,Phoenix,1987,1991,Arizona,Phoenix,Brophy College Preparatory,0,"Phoenix, Arizona",33.4484367,-112.074141,USA
Marvin Bagley,/players/b/baglema01.html,baglema01,14.8,Arizona,US,AZ,Tempe,2019,2020,California,Chatsworth,Sierra Canyon,0,"Tempe, Arizona",33.4255117,-111.940016,USA
Jerryd Bayless,/players/b/bayleje01.html,bayleje01,8.4,Arizona,US,AZ,Phoenix,2009,2019,Arizona,Phoenix,Saint Mary's,0,"Phoenix, Arizona",33.4484367,-112.074141,USA
Zylan Cheatham,/players/c/cheatzy01.html,cheatzy01,1.3,Arizona,US,AZ,Phoenix,2020,2020,Arizona,Phoenix,South Mountain HS,0,"Phoenix, Arizona",33.4484367,-112.074141,USA
Steve Colter,/players/c/coltest01.html,coltest01,6.3,Arizona,US,AZ,Phoenix,1985,1995,Arizona,Phoenix,Union,0,"Phoenix, Arizona",33.4484367,-112.074141,USA
Bryce Cotton,/players/c/cottobr01.html,cottobr01,3.8,Arizona,US,AZ,Tucson,2015,2016,Arizona,Tucson,Palo Verde,0,"Tucson, Arizona",32.2228765,-110.974847,USA
Ron Davis,/players/d/davisro01.html,davisro01,5.3,Arizona,US,AZ,Phoenix,1977,1982,Arizona,Phoenix,Maryvale,0,"Phoenix, Arizona",33.4484367,-112.074141,USA
Sean Elliott,/players/e/elliose01.html,elliose01,14.2,Arizona,US,AZ,Tucson,1990,2001,Arizona,Tucson,Cholla,2,"Tucson, Arizona",32.2228765,-110.974847,USA
Nick Johnson,/players/j/johnsni01.html,johnsni01,2.6,Arizona,US,AZ,Tempe,2015,2015,Nevada,Henderson,Findlay Prep,0,"Tempe, Arizona",33.4255117,-111.940016,USA
Kevin Knox,/players/k/knoxke01.html,knoxke01,9.9,Arizona,US,AZ,Phoenix,2019,2020,Florida,Tampa,Tampa Catholic,0,"Phoenix, Arizona",33.4484367,-112.074141,USA
Perry Moss,/players/m/mosspe01.html,mosspe01,3.9,Arizona,US,AZ,Tucson,1986,1987,Massachusetts,Amherst,Regional,0,"Tucson, Arizona",32.2228765,-110.974847,USA
Larry Owens,/players/o/owensla01.html,owensla01,2.8,Arizona,US,AZ,Mesa,2011,2012,Arizona,Mesa,Westwood,0,"Mesa, Arizona",33.4151005,-111.831455,USA
Wayne See,/players/s/seewa01.html,seewa01,5.2,Arizona,US,AZ,Clemenceau,1950,1950,,,,0,"Clemenceau, Arizona",34.7319656,-112.0265462,USA
Bernard Thompson,/players/t/thompbe01.html,thompbe01,5.3,Arizona,US,AZ,Phoenix,1985,1989,Arizona,Phoenix,South Mountain,0,"Phoenix, Arizona",33.4484367,-112.074141,USA
Matisse Thybulle,/players/t/thybuma01.html,thybuma01,4.7,Arizona,US,AZ,Scottsdale,2020,2020,Washington,Sammamish,Eastside Catholic,0,"Scottsdale, Arizona",33.4942189,-111.926018,USA
Paul Watson,/players/w/watsopa01.html,watsopa01,0.2,Arizona,US,AZ,Phoenix,2020,2020,Arizona,Phoenix,Paradise Valley HS,0,"Phoenix, Arizona",33.4484367,-112.074141,USA
Alan Williams,/players/w/willial03.html,willial03,6.2,Arizona,US,AZ,Phoenix,2016,2019,Arizona,Phoenix,North,0,"Phoenix, Arizona",33.4484367,-112.074141,USA
James Anderson,/players/a/anderja01.html,anderja01,5.8,Arkansas,US,AR,El Dorado,2011,2016,Arkansas,Junction City,Junction City,0,"El Dorado, Arkansas",33.2115087,-92.6650144,USA
Jim Barnes,/players/b/barneji01.html,barneji01,8.8,Arkansas,US,AR,Tuckerman,1965,1971,Oklahoma,Stillwater,Stillwater,0,"Tuckerman, Arkansas",35.7310015,-91.1994584,USA
Leon Blevins,/players/b/blevile01.html,blevile01,1.0,Arkansas,US,AR,Black Oak,1951,1951,Arizona,Phoenix,Union,0,"Black Oak, Arkansas",35.836667,-90.3672348,USA
Ron Brewer,/players/b/brewero01.html,brewero01,11.9,Arkansas,US,AR,Fort Smith,1979,1986,Arkansas,Fort Smith,Northside,0,"Fort Smith, Arkansas",35.3880338,-94.4265011,USA
Marcus Brown,/players/b/brownma01.html,brownma01,3.4,Arkansas,US,AR,West Memphis,1997,2000,Arkansas,West Memphis,West Memphis,0,"West Memphis, Arkansas",35.1464797,-90.1845388,USA
Bob Burrow,/players/b/burrobo01.html,burrobo01,5.7,Arkansas,US,AR,Malvern,1957,1958,Texas,Wells,Wells,0,"Malvern, Arkansas",34.3625823,-92.8092694,USA
Michael Cage,/players/c/cagemi01.html,cagemi01,7.3,Arkansas,US,AR,West Memphis,1985,2000,Arkansas,West Memphis,West Memphis,0,"West Memphis, Arkansas",35.1464797,-90.1845388,USA
Cory Carr,/players/c/carrco01.html,carrco01,4.1,Arkansas,US,AR,Fordyce,1999,1999,Arkansas,Kingsland,Kingsland,0,"Fordyce, Arkansas",33.8137161,-92.4129303,USA
Joe Barry Carroll,/players/c/carrojo01.html,carrojo01,17.7,Arkansas,US,AR,Pine Bluff,1981,1991,Colorado,Denver,East,1,"Pine Bluff, Arkansas",34.2157064,-92.0140402,USA
Archie Clark,/players/c/clarkar01.html,clarkar01,16.3,Arkansas,US,AR,Conway,1967,1976,Michigan,Ecorse,Ecorse,2,"Conway, Arkansas",35.2521996,-92.6888936,USA
Nat Clifton,/players/c/cliftna01.html,cliftna01,10.0,Arkansas,US,AR,Little Rock,1951,1958,Illinois,Chicago,DuSable,1,"Little Rock, Arkansas",34.7465071,-92.2896267,USA
Mike Conley,/players/c/conlemi01.html,conlemi01,14.8,Arkansas,US,AR,Fayetteville,2008,2020,Indiana,Indianapolis,Lawrence North,0,"Fayetteville, Arkansas",36.0625843,-94.1574328,USA
John Dickson,/players/d/dicksjo01.html,dicksjo01,1.7,Arkansas,US,AR,Searcy,1968,1968,Arkansas,Jonesboro,Jonesboro,0,"Searcy, Arkansas",35.9018987,-92.7098744,USA
Jeremy Evans,/players/e/evansje01.html,evansje01,3.5,Arkansas,US,AR,Crossett,2011,2018,Arkansas,Crossett,Crossett,0,"Crossett, Arkansas",33.1263899,-91.96297,USA
Derek Fisher,/players/f/fishede01.html,fishede01,8.3,Arkansas,US,AR,Little Rock,1997,2014,Arkansas,Little Rock,Parkview,0,"Little Rock, Arkansas",34.7465071,-92.2896267,USA
Daniel Gafford,/players/g/gaffoda01.html,gaffoda01,5.1,Arkansas,US,AR,El Dorado,2020,2020,Arkansas,El Dorado,El Dorado,0,"El Dorado, Arkansas",33.2115087,-92.6650144,USA
Archie Goodwin,/players/g/goodwar01.html,goodwar01,6.3,Arkansas,US,AR,Little Rock,2014,2017,Arkansas,Sherwood,Sylvan Hills,0,"Little Rock, Arkansas",34.7465071,-92.2896267,USA
Dusty Hannahs,/players/h/hannadu01.html,hannadu01,5.0,Arkansas,US,AR,Little Rock,2019,2020,Arkansas,Little Rock,Pulaski Academy,0,"Little Rock, Arkansas",34.7465071,-92.2896267,USA
Myron Jackson,/players/j/jacksmy01.html,jacksmy01,1.4,Arkansas,US,AR,Hamburg,1987,1987,Arkansas,Hamburg,Hamburg,0,"Hamburg, Arkansas",33.2281757,-91.7976285,USA
Joe Johnson,/players/j/johnsjo02.html,johnsjo02,16.0,Arkansas,US,AR,Little Rock,2002,2018,Arkansas,Little Rock,Little Rock Central,7,"Little Rock, Arkansas",34.7465071,-92.2896267,USA
Lee Johnson,/players/j/johnsle01.html,johnsle01,1.4,Arkansas,US,AR,Plummerville,1981,1981,Nebraska,Omaha,Omaha South,0,"Plummerville, Arkansas",35.158408,-92.6417919,USA
Caldwell Jones,/players/j/jonesca01.html,jonesca01,7.9,Arkansas,US,AR,McGehee,1974,1990,Arkansas,Rohwer,Desha Central,1,"McGehee, Arkansas",33.6294189,-91.399277,USA
Charles Jones,/players/j/jonesch01.html,jonesch01,2.5,Arkansas,US,AR,McGehee,1984,1998,Arkansas,Rohwer,Desha Central,0,"McGehee, Arkansas",33.6294189,-91.399277,USA
Fred Jones,/players/j/jonesfr01.html,jonesfr01,7.5,Arkansas,US,AR,Malvern,2003,2009,Oregon,Gresham,Barlow,0,"Malvern, Arkansas",34.3625823,-92.8092694,USA
Major Jones,/players/j/jonesma01.html,jonesma01,4.4,Arkansas,US,AR,McGhee,1980,1985,Arkansas,Rohwer,Desha Central,0,"McGhee, Arkansas",35.04343625,-92.85709413437236,USA
Wil Jones,/players/j/joneswi02.html,joneswi02,11.7,Arkansas,US,AR,McGehee,1970,1978,,,,1,"McGehee, Arkansas",33.6294189,-91.399277,USA
Andrew Lang,/players/l/langan01.html,langan01,6.0,Arkansas,US,AR,Pine Bluff,1989,2000,Arkansas,Pine Bluff,Dollarway,0,"Pine Bluff, Arkansas",34.2157064,-92.0140402,USA
Keith Lee,/players/l/leeke01.html,leeke01,6.1,Arkansas,US,AR,West Memphis,1986,1989,Arkansas,West Memphis,West Memphis,0,"West Memphis, Arkansas",35.1464797,-90.1845388,USA
Fat Lever,/players/l/leverfa01.html,leverfa01,13.9,Arkansas,US,AR,Pine Bluff,1983,1994,Arizona,Tucson,Pueblo,2,"Pine Bluff, Arkansas",34.2157064,-92.0140402,USA
Quincy Lewis,/players/l/lewisqu01.html,lewisqu01,3.6,Arkansas,US,AR,Little Rock,2000,2004,Arkansas,Little Rock,Parkview,0,"Little Rock, Arkansas",34.7465071,-92.2896267,USA
Daryl Macon,/players/m/maconda01.html,maconda01,2.7,Arkansas,US,AR,Little Rock,2019,2020,Arkansas,Little Rock,Parkview HS,0,"Little Rock, Arkansas",34.7465071,-92.2896267,USA
Brian Martin,/players/m/martibr01.html,martibr01,0.8,Arkansas,US,AR,Fort Smith,1986,1986,Kansas,Wichita,Northwest,0,"Fort Smith, Arkansas",35.3880338,-94.4265011,USA
Jeff Martin,/players/m/martije01.html,martije01,6.7,Arkansas,US,AR,Cherry Valley,1990,1991,Arkansas,Cherry Valley,Cross Country,0,"Cherry Valley, Arkansas",35.4020287,-90.7531682,USA
Jim McElroy,/players/m/mcelrji01.html,mcelrji01,9.9,Arkansas,US,AR,Cotton Plant,1976,1982,Michigan,Detroit,Murray-Wright,0,"Cotton Plant, Arkansas",35.0034813,-91.2501639,USA
Eddie Miles,/players/m/milesed01.html,milesed01,13.4,Arkansas,US,AR,North Little Rock,1964,1972,Arkansas,Little Rock,Scipio Jones,1,"North Little Rock, Arkansas",34.769536,-92.2670941,USA
Sidney Moncrief,/players/m/moncrsi01.html,moncrsi01,15.6,Arkansas,US,AR,Little Rock,1980,1991,Arkansas,Little Rock,Hall,5,"Little Rock, Arkansas",34.7465071,-92.2896267,USA
Malik Monk,/players/m/monkma01.html,monkma01,8.6,Arkansas,US,AR,Jonesboro,2018,2020,Arkansas,Bentonville,Bentonville,0,"Jonesboro, Arkansas",35.8272257,-90.6949871,USA
Gaylon Nickerson,/players/n/nickega01.html,nickega01,3.8,Arkansas,US,AR,Osecola,1997,1997,Kansas,Wichita,North,0,"Osecola, Arkansas",,,USA
Dennis Nutt,/players/n/nuttde01.html,nuttde01,2.3,Arkansas,US,AR,Little Rock,1987,1987,Arkansas,Little Rock,Central,0,"Little Rock, Arkansas",34.7465071,-92.2896267,USA
Jimmy Oliver,/players/o/oliveji01.html,oliveji01,4.2,Arkansas,US,AR,Menifee,1992,1999,Arkansas,Morrilton,Morrilton,0,"Menifee, Arkansas",35.1481572,-92.5526197,USA
Scottie Pippen,/players/p/pippesc01.html,pippesc01,16.1,Arkansas,US,AR,Hamburg,1988,2004,Arkansas,Hamburg,Hamburg,7,"Hamburg, Arkansas",33.2281757,-91.7976285,USA
Bobby Portis,/players/p/portibo01.html,portibo01,10.2,Arkansas,US,AR,Little Rock,2016,2020,Arkansas,Little Rock,Hall,0,"Little Rock, Arkansas",34.7465071,-92.2896267,USA
Bryant Reeves,/players/r/reevebr01.html,reevebr01,12.5,Arkansas,US,AR,Fort Smith,1996,2001,Oklahoma,Gans,Gans,0,"Fort Smith, Arkansas",35.3880338,-94.4265011,USA
Glen Rice,/players/r/ricegl01.html,ricegl01,18.3,Arkansas,US,AR,Jacksonville,1990,2004,Michigan,Flint,Flint Northwestern,3,"Jacksonville, Arkansas",34.8662005,-92.1101458,USA
Jackie Ridgle,/players/r/ridglja01.html,ridglja01,1.8,Arkansas,US,AR,Altheimer,1972,1972,Arkansas,Altheimer,Martin,0,"Altheimer, Arkansas",34.3188565,-91.8459762,USA
Jerry Rook,/players/r/rookje01.html,rookje01,3.0,Arkansas,US,AR,Jonesboro,1970,1970,Arkansas,Nettleton,Nettleton,0,"Jonesboro, Arkansas",35.8272257,-90.6949871,USA
Paul Silas,/players/s/silaspa01.html,silaspa01,9.4,Arkansas,US,AR,Prescott,1965,1980,California,Oakland,McClymonds,2,"Prescott, Arkansas",33.8026107,-93.3810057,USA
Jeff Taylor,/players/t/tayloje01.html,tayloje01,3.2,Arkansas,US,AR,Blytheville,1983,1987,New Mexico,Hobbs,Hobbs,0,"Blytheville, Arkansas",35.9288199,-89.9073557,USA
Jeff Webster,/players/w/webstje01.html,webstje01,1.6,Arkansas,US,AR,Pine Bluff,1996,1996,Oklahoma,Midwest City,Carl Albert,0,"Pine Bluff, Arkansas",34.2157064,-92.0140402,USA
Sonny Weems,/players/w/weemsso01.html,weemsso01,6.5,Arkansas,US,AR,West Memphis,2009,2016,Arkansas,West Memphis,West Memphis,0,"West Memphis, Arkansas",35.1464797,-90.1845388,USA
Corliss Williamson,/players/w/willico02.html,willico02,11.1,Arkansas,US,AR,Russellville,1996,2007,Arkansas,Russellville,Russellville,0,"Russellville, Arkansas",35.2784173,-93.1337856,USA
Jasper Wilson,/players/w/wilsoja01.html,wilsoja01,5.2,Arkansas,US,AR,Camden,1969,1970,,,,0,"Camden, Arkansas",33.5845582,-92.8343294,USA
Alex Acker,/players/a/ackeral01.html,ackeral01,2.7,California,US,CA,Compton,2006,2009,California,Rialto,Eisenhower,0,"Compton, California",33.894927,-118.226624,USA
Mark Acres,/players/a/acresma01.html,acresma01,3.6,California,US,CA,Inglewood,1988,1993,California,Palos Verdes Estates,Palos Verdes,0,"Inglewood, California",33.9562003,-118.353132,USA
Hassan Adams,/players/a/adamsha01.html,adamsha01,2.5,California,US,CA,Inglewood,2007,2009,California,Los Angeles,Westchester,0,"Inglewood, California",33.9562003,-118.353132,USA
Rick Adelman,/players/a/adelmri01.html,adelmri01,7.7,California,US,CA,Lynwood,1969,1975,California,Downey,Saint Pius X,0,"Lynwood, California",33.924831,-118.2024154,USA
Arron Afflalo,/players/a/afflaar01.html,afflaar01,10.8,California,US,CA,Los Angeles,2008,2018,California,Compton,Centennial,0,"Los Angeles, California",34.0536909,-118.242766,USA
Josh Akognon,/players/a/akognjo01.html,akognjo01,1.7,California,US,CA,Greenbrae,2013,2013,California,Petaluma,Casa Grande,0,"Greenbrae, California",37.9485356,-122.5247031,USA
Ray Allen,/players/a/allenra02.html,allenra02,18.9,California,US,CA,Merced,1997,2014,South Carolina,Dalzell,Hillcrest,10,"Merced, California",37.1641544,-120.7678602,USA
Darrell Allums,/players/a/allumda01.html,allumda01,2.7,California,US,CA,Los Angeles,1981,1981,California,Lynwood,Lynwood,0,"Los Angeles, California",34.0536909,-118.242766,USA
Lou Amundson,/players/a/amundlo01.html,amundlo01,3.7,California,US,CA,Ventura,2007,2016,Colorado,Louisville,Monarch,0,"Ventura, California",34.4458248,-119.0779359,USA
Chris Andersen,/players/a/anderch01.html,anderch01,5.4,California,US,CA,Long Beach,2002,2017,Texas,Iola,Iola,0,"Long Beach, California",33.7690164,-118.191604,USA
Richard Anderson,/players/a/anderri01.html,anderri01,5.6,California,US,CA,San Pedro,1983,1990,California,Garden Grove,Rancho Alamitos,0,"San Pedro, California",33.7358518,-118.2922934,USA
Ryan Anderson,/players/a/anderry01.html,anderry01,12.3,California,US,CA,Sacramento,2009,2020,California,El Dorado Hills,Oak Ridge,0,"Sacramento, California",38.5810606,-121.493895,USA
Ike Anigbogu,/players/a/anigbik01.html,anigbik01,0.9,California,US,CA,San Diego,2018,2019,California,Corono,Centennial,0,"San Diego, California",32.7174202,-117.162772,USA
Brandon Armstrong,/players/a/armstbr01.html,armstbr01,2.2,California,US,CA,San Francisco,2002,2004,California,Vallejo,Vallejo,0,"San Francisco, California",37.7792588,-122.4193286,USA
Stacey Augmon,/players/a/augmost01.html,augmost01,8.0,California,US,CA,Pasadena,1992,2006,California,Pasadena,John Muir,0,"Pasadena, California",34.1476507,-118.144155,USA
Isaac Austin,/players/a/austiis01.html,austiis01,7.6,California,US,CA,Gridley,1992,2002,California,Oroville,Las Plumas,0,"Gridley, California",39.3637773,-121.693583,USA
Ken Austin,/players/a/austike01.html,austike01,1.7,California,US,CA,Los Angeles,1984,1984,California,Los Angeles,Verbum Dei,0,"Los Angeles, California",34.0536909,-118.242766,USA
Dennis Awtrey,/players/a/awtrede01.html,awtrede01,4.8,California,US,CA,Hollywood,1971,1982,California,San Jose,Blackford,0,"Hollywood, California",34.0980031,-118.329523,USA
Jeff Ayres,/players/p/pendeje02.html,pendeje02,2.9,California,US,CA,Ontario,2010,2016,California,Rancho Cucamonga,Etiwanda,0,"Ontario, California",34.065846,-117.64843,USA
Toby Bailey,/players/b/baileto01.html,baileto01,3.3,California,US,CA,Los Angeles,1999,2000,California,Los Angeles,Loyola,0,"Los Angeles, California",34.0536909,-118.242766,USA
Lonzo Ball,/players/b/balllo01.html,balllo01,10.9,California,US,CA,Anaheim,2018,2020,California,Chino Hills,Chino Hills,0,"Anaheim, California",33.8347516,-117.911732,USA
Greg Ballard,/players/b/ballagr01.html,ballagr01,12.4,California,US,CA,Los Angeles,1978,1989,California,Pomona,Garey,0,"Los Angeles, California",34.0536909,-118.242766,USA
Don Barksdale,/players/b/barksdo01.html,barksdo01,11.0,California,US,CA,Oakland,1952,1955,California,Berkeley,Berkeley,1,"Oakland, California",37.8044557,-122.271356,USA
Matt Barnes,/players/b/barnema02.html,barnema02,8.2,California,US,CA,Santa Clara,2004,2017,California,Sacramento,Del Campo,0,"Santa Clara, California",37.2333253,-121.6846349,USA
Drew Barry,/players/b/barrydr01.html,barrydr01,2.2,California,US,CA,Oakland,1998,2000,California,Concord,De La Salle Catholic,0,"Oakland, California",37.8044557,-122.271356,USA
Jon Barry,/players/b/barryjo01.html,barryjo01,5.7,California,US,CA,Oakland,1993,2006,California,Concord,De La Salle Catholic,0,"Oakland, California",37.8044557,-122.271356,USA
Mike Batiste,/players/b/batismi01.html,batismi01,6.4,California,US,CA,Long Beach,2003,2003,California,Long Beach,Wilson,0,"Long Beach, California",33.7690164,-118.191604,USA
Jerome Beasley,/players/b/beaslje01.html,beaslje01,1.0,California,US,CA,Compton,2004,2004,California,Moreno Valley,Moreno Valley,0,"Compton, California",33.894927,-118.226624,USA
Bob Bedell,/players/b/bedelbo01.html,bedelbo01,8.4,California,US,CA,Los Angeles,1968,1971,California,Bell Gardens,Bell Gardens,0,"Los Angeles, California",34.0536909,-118.242766,USA
Jordan Bell,/players/b/belljo01.html,belljo01,3.8,California,US,CA,Los Angeles,2018,2020,California,Long Beach,Long Beach Poly,0,"Los Angeles, California",34.0536909,-118.242766,USA
Corey Benjamin,/players/b/benjaco01.html,benjaco01,5.5,California,US,CA,Compton,1999,2003,California,Fontana,Fontana,0,"Compton, California",33.894927,-118.226624,USA
Jabari Bird,/players/b/birdja01.html,birdja01,3.0,California,US,CA,Walnut Creek,2018,2018,California,Richmond,Salesian Prep,0,"Walnut Creek, California",37.9020731,-122.0618702,USA
John Block,/players/b/blockjo01.html,blockjo01,11.9,California,US,CA,Los Angeles,1967,1976,California,Glendale,Glendale,1,"Los Angeles, California",34.0536909,-118.242766,USA
Corie Blount,/players/b/blounco01.html,blounco01,3.6,California,US,CA,Monrovia,1994,2004,California,Monrovia,Monrovia,0,"Monrovia, California",34.1483499,-118.0014517,USA
Etdrick Bohannon,/players/b/bohanet01.html,bohanet01,1.4,California,US,CA,San Bernardino,1998,2001,Maine,Pittsfield,Maine Central Institute,0,"San Bernardino, California",34.8253019,-116.0833144,USA
Bruce Bowen,/players/b/bowenbr01.html,bowenbr01,6.1,California,US,CA,Merced,1997,2009,California,Fresno,Edison,0,"Merced, California",37.1641544,-120.7678602,USA
Freddie Boyd,/players/b/boydfr01.html,boydfr01,8.5,California,US,CA,Bakersfield,1973,1978,California,Bakersfield,East Bakersfield,0,"Bakersfield, California",35.3738712,-119.019463,USA
Cedric Bozeman,/players/b/bozemce01.html,bozemce01,1.1,California,US,CA,Los Angeles,2007,2007,California,Santa Ana,Mater Dei,0,"Los Angeles, California",34.0536909,-118.242766,USA
Craig Brackins,/players/b/brackcr01.html,brackcr01,1.8,California,US,CA,Los Angeles,2011,2012,New Hampshire,Wolfeboro,Brewster Academy,0,"Los Angeles, California",34.0536909,-118.242766,USA
Torraye Braggs,/players/b/braggto01.html,braggto01,2.1,California,US,CA,Fresno,2004,2005,California,Fresno,Edison,0,"Fresno, California",36.7394421,-119.78483,USA
Mike Bratz,/players/b/bratzmi01.html,bratzmi01,7.0,California,US,CA,Lompoc,1978,1986,California,Lompoc,Lompoc,0,"Lompoc, California",34.6391501,-120.4579009,USA
Scott Brooks,/players/b/brooksc01.html,brooksc01,4.9,California,US,CA,French Camp,1989,1998,California,Manteca,East Union,0,"French Camp, California",37.876291,-121.2717439299314,USA
Anthony Brown,/players/b/brownan02.html,brownan02,3.9,California,US,CA,Bellflower,2016,2018,California,Huntington Beach,Ocean View,0,"Bellflower, California",33.8825705,-118.1167679,USA
Bobby Brown,/players/b/brownbo02.html,brownbo02,4.4,California,US,CA,Los Angeles,2009,2018,California,Los Angeles,Westchester,0,"Los Angeles, California",34.0536909,-118.242766,USA
Darrell Brown,/players/b/brownda01.html,brownda01,1.3,California,US,CA,Eureka,1949,1949,,,,0,"Eureka, California",40.7906871,-124.1673746,USA
Derrick Brown,/players/b/brownde04.html,brownde04,5.2,California,US,CA,Oakland,2010,2012,Ohio,Dayton,Chaminade Julienne,0,"Oakland, California",37.8044557,-122.271356,USA
Gerald Brown,/players/b/brownge02.html,brownge02,2.4,California,US,CA,Los Angeles,1999,1999,Arizona,Phoenix,Carl Hayden,0,"Los Angeles, California",34.0536909,-118.242766,USA
Jabari Brown,/players/b/brownja01.html,brownja01,11.9,California,US,CA,Oakland,2015,2015,California,Oakland,Oakland High School,0,"Oakland, California",37.8044557,-122.271356,USA
Lewis Brown,/players/b/brownle02.html,brownle02,1.0,California,US,CA,Los Angeles,1981,1981,California,Los Angeles,Verbum Dei,0,"Los Angeles, California",34.0536909,-118.242766,USA
Chase Budinger,/players/b/budinch01.html,budinch01,7.9,California,US,CA,Encinitas,2010,2016,California,Carlsbad,La Costa Canyon,0,"Encinitas, California",33.0369867,-117.2919818,USA
Jud Buechler,/players/b/buechju01.html,buechju01,3.3,California,US,CA,San Diego,1991,2002,California,Poway,Poway,0,"San Diego, California",32.7174202,-117.162772,USA
Greg Bunch,/players/b/bunchgr01.html,bunchgr01,2.3,California,US,CA,San Bernardino,1979,1979,California,San Bernadino,Pacific,0,"San Bernardino, California",34.8253019,-116.0833144,USA
Greg Butler,/players/b/butlegr01.html,butlegr01,1.4,California,US,CA,Inglewood,1989,1991,California,Rolling Hills Estates,Rolling Hills,0,"Inglewood, California",33.9562003,-118.353132,USA
Mitchell Butler,/players/b/butlemi02.html,butlemi02,5.2,California,US,CA,Los Angeles,1994,2004,California,North Hollywood,Oakwood,0,"Los Angeles, California",34.0536909,-118.242766,USA
Bill Calhoun,/players/c/calhobi01.html,calhobi01,7.8,California,US,CA,San Francisco,1949,1955,California,San Francisco,Lowell,0,"San Francisco, California",37.7792588,-122.4193286,USA
Elden Campbell,/players/c/campbel01.html,campbel01,10.3,California,US,CA,Los Angeles,1991,2005,California,Inglewood,Morningside,0,"Los Angeles, California",34.0536909,-118.242766,USA
Al Carlson,/players/c/carlsal01.html,carlsal01,2.6,California,US,CA,Oceanside,1976,1976,California,Garden Grove,Garden Grove,0,"Oceanside, California",33.1958696,-117.3794834,USA
Bill Cartwright,/players/c/cartwbi01.html,cartwbi01,13.2,California,US,CA,Lodi,1980,1995,California,Elk Grove,Elk Grove,1,"Lodi, California",38.1343744,-121.2735432,USA
Tyson Chandler,/players/c/chandty01.html,chandty01,8.2,California,US,CA,Hanford,2002,2020,California,Compton,Dominguez,1,"Hanford, California",36.3274502,-119.6456844,USA
Phil Chenier,/players/c/cheniph01.html,cheniph01,17.2,California,US,CA,Berkeley,1972,1981,California,Berkeley,Berkeley,3,"Berkeley, California",37.8708393,-122.272863,USA
Will Cherry,/players/c/cherrwi01.html,cherrwi01,1.9,California,US,CA,Oakland,2015,2015,California,Oakland,McClymonds,0,"Oakland, California",37.8044557,-122.271356,USA
Josh Childress,/players/c/childjo01.html,childjo01,9.1,California,US,CA,Harbor City,2005,2014,California,Lakewood,Mayfair,0,"Harbor City, California",33.7911012,-118.3012604,USA
Chris Childs,/players/c/childch01.html,childch01,6.9,California,US,CA,Bakersfield,1995,2003,California,Bakersfield,Foothill,0,"Bakersfield, California",35.3738712,-119.019463,USA
Marquese Chriss,/players/c/chrisma01.html,chrisma01,8.0,California,US,CA,Sacramento,2017,2020,California,Elk Grove,Pleasant Grove,0,"Sacramento, California",38.5810606,-121.493895,USA
Patrick Christopher,/players/c/chrispa01.html,chrispa01,1.5,California,US,CA,Compton,2015,2015,California,Compton,Dominguez,0,"Compton, California",33.894927,-118.226624,USA
Jarron Collins,/players/c/collija03.html,collija03,3.9,California,US,CA,Northridge,2002,2011,California,North Hollywood,Harvard-Westlake School,0,"Northridge, California",34.2345615,-118.5369316,USA
Jason Collins,/players/c/collija04.html,collija04,3.6,California,US,CA,Northridge,2002,2014,California,North Hollywood,Harvard-Westlake School,0,"Northridge, California",34.2345615,-118.5369316,USA
Darren Collison,/players/c/collida01.html,collida01,12.5,California,US,CA,Rancho Cucamonga,2010,2019,California,Rancho Cucamonga,Etiwanda,0,"Rancho Cucamonga, California",34.1033192,-117.575173,USA
Anthony Cook,/players/c/cookan01.html,cookan01,3.6,California,US,CA,Los Angeles,1991,1996,California,Van Nuys,Van Nuys,0,"Los Angeles, California",34.0536909,-118.242766,USA
Darwin Cook,/players/c/cookda01.html,cookda01,9.5,California,US,CA,Los Angeles,1981,1989,California,Los Angeles,Crenshaw,0,"Los Angeles, California",34.0536909,-118.242766,USA
Jeff Cook,/players/c/cookje01.html,cookje01,5.3,California,US,CA,West Covina,1980,1988,California,West Covina,Edgewood,0,"West Covina, California",34.0686208,-117.9389526,USA
David Cooke,/players/c/cookeda01.html,cookeda01,1.5,California,US,CA,Sacramento,1986,1986,California,Sacramento,Christian Brothers,0,"Sacramento, California",38.5810606,-121.493895,USA
Michael Cooper,/players/c/coopemi01.html,coopemi01,8.9,California,US,CA,Los Angeles,1979,1990,California,Pasadena,Pasadena,0,"Los Angeles, California",34.0536909,-118.242766,USA
James Cotton,/players/c/cottoja02.html,cottoja02,2.6,California,US,CA,Los Angeles,1998,1999,California,Bellflower,Saint John Bosco,0,"Los Angeles, California",34.0536909,-118.242766,USA
John Coughran,/players/c/coughjo01.html,coughjo01,2.8,California,US,CA,Pittsburg,1980,1980,California,San Jose,Piedmont Hills,0,"Pittsburg, California",38.0181745,-121.8901232,USA
Allen Crabbe,/players/c/crabbal01.html,crabbal01,9.1,California,US,CA,Los Angeles,2014,2020,California,Los Angeles,Price,0,"Los Angeles, California",34.0536909,-118.242766,USA
Hal Crisler,/players/c/crislha01.html,crislha01,1.5,California,US,CA,Richmond,1947,1947,California,Richmond,Richmond,0,"Richmond, California",37.9357576,-122.347748,USA
Russell Critchfield,/players/c/critcru01.html,critcru01,3.4,California,US,CA,Salinas,1969,1969,California,Salinas,Salinas,0,"Salinas, California",36.6744117,-121.655037,USA
Winston Crite,/players/c/critewi01.html,critewi01,2.8,California,US,CA,Bakersfield,1988,1989,California,Bakersfield,South,0,"Bakersfield, California",35.3738712,-119.019463,USA
Austin Croshere,/players/c/croshau01.html,croshau01,6.8,California,US,CA,Los Angeles,1998,2009,California,Los Angeles,Crossroads School,0,"Los Angeles, California",34.0536909,-118.242766,USA
Mark Crow,/players/c/crowma01.html,crowma01,5.6,California,US,CA,Edwards AFB,1978,1978,,,,0,"Edwards AFB, California",34.91190565,-117.88324122324512,USA
Jared Cunningham,/players/c/cunnija01.html,cunnija01,2.3,California,US,CA,Oakland,2013,2016,California,San Leandro,San Leandro,0,"Oakland, California",37.8044557,-122.271356,USA
Howie Dallmar,/players/d/dallmho01.html,dallmho01,9.6,California,US,CA,San Francisco,1947,1949,California,San Francisco,Lowell,0,"San Francisco, California",37.7792588,-122.4193286,USA
Antonio Davis,/players/d/davisan01.html,davisan01,10.0,California,US,CA,Oakland,1994,2006,California,Oakland,McClymonds,1,"Oakland, California",37.8044557,-122.271356,USA
Baron Davis,/players/d/davisba01.html,davisba01,16.1,California,US,CA,Los Angeles,2000,2012,California,Santa Monica,Crossroads,2,"Los Angeles, California",34.0536909,-118.242766,USA
Tyler Davis,/players/d/davisty01.html,davisty01,0.0,California,US,CA,San Jose,2019,2019,Texas,Plano,Plano West HS,0,"San Jose, California",37.3361663,-121.890591,USA
Austin Daye,/players/d/dayeau01.html,dayeau01,5.2,California,US,CA,Irvine,2010,2015,California,Irvine,Woodbridge,0,"Irvine, California",33.6856969,-117.825981,USA
Greg Deane,/players/d/deanegr01.html,deanegr01,1.4,California,US,CA,Tulare,1980,1980,California,Tulare,Union,0,"Tulare, California",36.2516475,-118.852583,USA
Dewayne Dedmon,/players/d/dedmode01.html,dedmode01,6.4,California,US,CA,Lancaster,2014,2020,California,Lancaster,Lancaster HS,0,"Lancaster, California",34.6981064,-118.1366153,USA
Bryce Dejean-Jones,/players/d/dejeabr01.html,dejeabr01,5.6,California,US,CA,Los Angeles,2016,2016,California,Woodland Hills,Taft,0,"Los Angeles, California",34.0536909,-118.242766,USA
Bison Dele,/players/d/delebi01.html,delebi01,11.0,California,US,CA,Fresno,1992,1999,California,Santa Monica,Santa Monica,0,"Fresno, California",36.7394421,-119.78483,USA
Dell Demps,/players/d/dempsde01.html,dempsde01,3.0,California,US,CA,Long Beach,1994,1997,California,Hayward,Mount Eden,0,"Long Beach, California",33.7690164,-118.191604,USA
DeMar DeRozan,/players/d/derozde01.html,derozde01,20.0,California,US,CA,Compton,2010,2020,California,Compton,Compton,4,"Compton, California",33.894927,-118.226624,USA
Coby Dietrick,/players/d/dietrco01.html,dietrco01,6.1,California,US,CA,Riverside,1971,1983,California,Riverside,Riverside Polytech,0,"Riverside, California",33.7219991,-116.0372472,USA
Harry Dinnel,/players/d/dinneha01.html,dinneha01,1.7,California,US,CA,Venice,1968,1968,California,Manhattan Beach,Mira Costa,0,"Venice, California",33.995044,-118.4668875,USA
Spencer Dinwiddie,/players/d/dinwisp01.html,dinwisp01,12.9,California,US,CA,Los Angeles,2015,2020,California,Woodland Hills,William Howard Taft,0,"Los Angeles, California",34.0536909,-118.242766,USA
Tyler Dorsey,/players/d/dorsety01.html,dorsety01,6.7,California,US,CA,Pasadena,2018,2019,California,Los Angeles,Maranatha,0,"Pasadena, California",34.1476507,-118.144155,USA
Larry Drew,/players/d/drewla02.html,drewla02,2.9,California,US,CA,Los Angeles,2015,2018,California,Woodland Hills,Taft,0,"Los Angeles, California",34.0536909,-118.242766,USA
Ralph Drollinger,/players/d/drollra01.html,drollra01,2.5,California,US,CA,La Mesa,1981,1981,California,La Mesa,Grossmont,0,"La Mesa, California",32.7678288,-117.0230839,USA
Jared Dudley,/players/d/dudleja01.html,dudleja01,7.5,California,US,CA,San Diego,2008,2020,California,San Diego,Horizon,0,"San Diego, California",32.7174202,-117.162772,USA
Craig Dykema,/players/d/dykemcr01.html,dykemcr01,1.3,California,US,CA,Lakewood,1982,1982,California,Lakewood,Lakewood,0,"Lakewood, California",33.8503463,-118.117191,USA
Jim Eakins,/players/e/eakinji01.html,eakinji01,10.8,California,US,CA,Sacramento,1969,1978,California,Sacramento,Encina,1,"Sacramento, California",38.5810606,-121.493895,USA
Mark Eaton,/players/e/eatonma01.html,eatonma01,6.0,California,US,CA,Westminster,1983,1993,California,Westminster,Westminster,1,"Westminster, California",33.7578725,-117.9859054,USA
Tyus Edney,/players/e/edneyty01.html,edneyty01,7.6,California,US,CA,Gardena,1996,2001,California,Long Beach,Long Beach Polytechnic,0,"Gardena, California",33.8815702,-118.2918113,USA
Shane Edwards,/players/e/edwarsh01.html,edwarsh01,1.0,California,US,CA,Los Angeles,2014,2014,Arizona,Phoenix,Mountain Pointe,0,"Los Angeles, California",34.0536909,-118.242766,USA
LeRon Ellis,/players/e/ellisle02.html,ellisle02,3.0,California,US,CA,Los Angeles,1992,1996,California,Santa Ana,Mater Dei,0,"Los Angeles, California",34.0536909,-118.242766,USA
Wayne Englestad,/players/e/englewa01.html,englewa01,2.5,California,US,CA,Rosemead,1989,1989,California,Rosemead,Don Bosco Technical Institute,0,"Rosemead, California",34.0676169,-118.0879763,USA
James Ennis,/players/e/ennisja01.html,ennisja01,6.4,California,US,CA,Ventura,2015,2020,California,Ventura,Ventura,0,"Ventura, California",34.4458248,-119.0779359,USA
Keith Erickson,/players/e/erickke01.html,erickke01,9.5,California,US,CA,San Francisco,1966,1977,California,El Segundo,El Segundo,0,"San Francisco, California",37.7792588,-122.4193286,USA
John Fairchild,/players/f/faircjo01.html,faircjo01,6.6,California,US,CA,Encinitas,1966,1970,California,San Dieguito,San Dieguito,0,"Encinitas, California",33.0369867,-117.2919818,USA
Jordan Farmar,/players/f/farmajo01.html,farmajo01,7.7,California,US,CA,Los Angeles,2007,2017,California,Woodland Hills,Taft,0,"Los Angeles, California",34.0536909,-118.242766,USA
Tony Farmer,/players/f/farmeto01.html,farmeto01,5.3,California,US,CA,Los Angeles,1998,2000,California,Lakewood,Artesia,0,"Los Angeles, California",34.0536909,-118.242766,USA
Bob Feerick,/players/f/feeribo01.html,feeribo01,13.3,California,US,CA,San Francisco,1947,1950,California,San Francisco,Lowell,0,"San Francisco, California",37.7792588,-122.4193286,USA
Noel Felix,/players/f/felixno01.html,felixno01,1.5,California,US,CA,Los Angeles,2006,2006,California,Inglewood,Inglewood,0,"Los Angeles, California",34.0536909,-118.242766,USA
Eric Fernsten,/players/f/fernser01.html,fernser01,2.4,California,US,CA,Oakland,1976,1984,California,Oakland,Skyline,0,"Oakland, California",37.8044557,-122.271356,USA
Landry Fields,/players/f/fieldla01.html,fieldla01,6.8,California,US,CA,Long Beach,2011,2015,California,Los Alamitos,Los Alamitos,0,"Long Beach, California",33.7690164,-118.191604,USA
Isaac Fontaine,/players/f/fontais01.html,fontais01,1.8,California,US,CA,Sacramento,2002,2002,California,Sacramento,Jesuit Carmichael,0,"Sacramento, California",38.5810606,-121.493895,USA
Don Ford,/players/f/forddo01.html,forddo01,6.4,California,US,CA,Santa Barbara,1976,1982,California,Santa Barbara,Santa Barbara,0,"Santa Barbara, California",34.4221319,-119.702667,USA
Bayard Forrest,/players/f/forreba01.html,forreba01,4.1,California,US,CA,San Jose,1978,1979,Oregon,Bandon,Bandon,0,"San Jose, California",37.3361663,-121.890591,USA
Greg Foster,/players/f/fostegr01.html,fostegr01,3.9,California,US,CA,Oakland,1991,2003,California,Oakland,Skyline,0,"Oakland, California",37.8044557,-122.271356,USA
Tremaine Fowlkes,/players/f/fowlktr01.html,fowlktr01,2.9,California,US,CA,Los Angeles,2002,2005,California,Los Angeles,Crenshaw,0,"Los Angeles, California",34.0536909,-118.242766,USA
Jamaal Franklin,/players/f/frankja01.html,frankja01,1.8,California,US,CA,Moreno Valley,2014,2015,Arizona,Phoenix,Westwind Prep,0,"Moreno Valley, California",33.937517,-117.2305944,USA
Anthony Frederick,/players/f/fredean01.html,fredean01,4.9,California,US,CA,Los Angeles,1989,1992,California,Gardena,Gardena,0,"Los Angeles, California",34.0536909,-118.242766,USA
Corey Gaines,/players/g/gaineco01.html,gaineco01,3.1,California,US,CA,Los Angeles,1989,1995,California,Playa del Rey,Saint Bernard,0,"Los Angeles, California",34.0536909,-118.242766,USA
Gene Gallette,/players/g/gillege01.html,gillege01,0.6,California,US,CA,San Francisco,1947,1947,California,San Francisco,Galileo,0,"San Francisco, California",37.7792588,-122.4193286,USA
Marlon Garnett,/players/g/garnema01.html,garnema01,2.1,California,US,CA,Los Angeles,1999,1999,California,Los Angeles,Hamilton,0,"Los Angeles, California",34.0536909,-118.242766,USA
Dean Garrett,/players/g/garrede01.html,garrede01,4.8,California,US,CA,Los Angeles,1997,2002,California,San Clemente,San Clemente,0,"Los Angeles, California",34.0536909,-118.242766,USA
Paul George,/players/g/georgpa01.html,georgpa01,19.9,California,US,CA,Palmdale,2011,2020,California,Palmdale,Knight,6,"Palmdale, California",34.5793131,-118.11711,USA
John Gianelli,/players/g/gianejo01.html,gianejo01,7.8,California,US,CA,Stockton,1973,1980,California,Stockton,Edison,0,"Stockton, California",37.9577016,-121.290779,USA
Jonathan Gibson,/players/g/gibsojo01.html,gibsojo01,6.7,California,US,CA,West Covina,2017,2018,California,San Fernando,Calvary Christian,0,"West Covina, California",34.0686208,-117.9389526,USA
Normie Glick,/players/g/glickno01.html,glickno01,2.0,California,US,CA,Los Angeles,1950,1950,California,Los Angeles,Manual Arts,0,"Los Angeles, California",34.0536909,-118.242766,USA
Drew Gooden,/players/g/goodedr01.html,goodedr01,11.0,California,US,CA,Oakland,2003,2016,California,El Cerrito,El Cerrito,0,"Oakland, California",37.8044557,-122.271356,USA
Gail Goodrich,/players/g/goodrga01.html,goodrga01,18.6,California,US,CA,Los Angeles,1966,1979,California,Sun Valley,Polytechnic,5,"Los Angeles, California",34.0536909,-118.242766,USA
Aaron Gordon,/players/g/gordoaa01.html,gordoaa01,12.7,California,US,CA,San Jose,2015,2020,California,San Jose,Archbishop Mitty,0,"San Jose, California",37.3361663,-121.890591,USA
Drew Gordon,/players/g/gordodr01.html,gordodr01,1.9,California,US,CA,San Jose,2015,2015,California,San Jose,Archbishop Mitty,0,"San Jose, California",37.3361663,-121.890591,USA
Ron Grandison,/players/g/grandro01.html,grandro01,2.4,California,US,CA,Los Angeles,1989,1996,California,Playa del Rey,Saint Bernard,0,"Los Angeles, California",34.0536909,-118.242766,USA
Aaron Gray,/players/g/grayaa01.html,grayaa01,3.4,California,US,CA,Tarzana,2008,2014,Pennsylvania,Emmaus,Emmaus,0,"Tarzana, California",34.1689262,-118.5365791,USA
Ed Gray,/players/g/grayed01.html,grayed01,6.2,California,US,CA,Riverside,1998,1999,California,Riverside,North,0,"Riverside, California",33.7219991,-116.0372472,USA
Evric Gray,/players/g/grayev01.html,grayev01,2.6,California,US,CA,Bloomington,1997,1997,California,Bloomington,Bloomington,0,"Bloomington, California",34.07029,-117.395879,USA
Erick Green,/players/g/greener01.html,greener01,3.1,California,US,CA,Inglewood,2015,2016,Virginia,Fairfax,Paul VI,0,"Inglewood, California",33.9562003,-118.353132,USA
Sean Green,/players/g/greense01.html,greense01,4.2,California,US,CA,Santa Monica,1992,1994,Virginia,Mouth of Wilson,Oak Hill Academy,0,"Santa Monica, California",34.0194704,-118.491227,USA
Dave Greenwood,/players/g/greenda01.html,greenda01,10.2,California,US,CA,Lynwood,1980,1991,California,Los Angeles,Verbum Dei,0,"Lynwood, California",33.924831,-118.2024154,USA
John Greig,/players/g/greigjo01.html,greigjo01,2.1,California,US,CA,Sacramento,1983,1983,Washington,Olympia,Timberline,0,"Sacramento, California",38.5810606,-121.493895,USA
Dennis Grey,/players/g/greyde01.html,greyde01,8.8,California,US,CA,San Diego,1969,1970,California,San Diego,Crawford,0,"San Diego, California",32.7174202,-117.162772,USA
Bob Gross,/players/g/grossbo01.html,grossbo01,8.9,California,US,CA,San Pedro,1976,1983,California,San Pedro,Fermin Lausen,0,"San Pedro, California",33.7358518,-118.2922934,USA
Jack Haley,/players/h/haleyja01.html,haleyja01,3.5,California,US,CA,Long Beach,1989,1998,California,Huntington Beach,Huntington Beach,0,"Long Beach, California",33.7690164,-118.191604,USA
Daniel Hamilton,/players/h/hamilda02.html,hamilda02,2.8,California,US,CA,Los Angeles,2018,2019,California,Bellflower,St. John Bosco,0,"Los Angeles, California",34.0536909,-118.242766,USA
Dennis Hamilton,/players/h/hamilde01.html,hamilde01,4.6,California,US,CA,Huntington Beach,1968,1971,California,Huntington Beach,Huntington Beach,0,"Huntington Beach, California",33.6783336,-118.000016,USA
Jordan Hamilton,/players/h/hamiljo02.html,hamiljo02,5.9,California,US,CA,Los Angeles,2012,2016,California,Compton,Dominguez,0,"Los Angeles, California",34.0536909,-118.242766,USA
Justin Hamilton,/players/h/hamilju01.html,hamilju01,6.1,California,US,CA,Newport Beach,2014,2017,Utah,Highland,Lone Peak,0,"Newport Beach, California",33.6170092,-117.9294401,USA
Roy Hamilton,/players/h/hamilro01.html,hamilro01,4.6,California,US,CA,Los Angeles,1980,1981,California,Los Angeles,Verbum Dei,0,"Los Angeles, California",34.0536909,-118.242766,USA
Alex Hannum,/players/h/hannual01.html,hannual01,6.0,California,US,CA,Los Angeles,1950,1957,California,Los Angeles,Alexander Hamilton,0,"Los Angeles, California",34.0536909,-118.242766,USA
Rollen Hans,/players/h/hansro01.html,hansro01,7.0,California,US,CA,Los Angeles,1954,1955,California,Los Angeles,Polytechnic,0,"Los Angeles, California",34.0536909,-118.242766,USA
Tim Hardaway,/players/h/hardati02.html,hardati02,13.4,California,US,CA,Orinda,2014,2020,Florida,Pinecrest,Palmetto Senior,0,"Orinda, California",37.8771476,-122.1796888,USA
James Harden,/players/h/hardeja01.html,hardeja01,25.1,California,US,CA,Los Angeles,2010,2020,California,Lakewood,Artesia,8,"Los Angeles, California",34.0536909,-118.242766,USA
Lucious Harris,/players/h/harrilu01.html,harrilu01,7.2,California,US,CA,Los Angeles,1994,2005,California,Los Angeles,Cleveland,0,"Los Angeles, California",34.0536909,-118.242766,USA
Jason Hart,/players/h/hartja01.html,hartja01,4.8,California,US,CA,Los Angeles,2001,2010,California,Inglewood,Inglewood,0,"Los Angeles, California",34.0536909,-118.242766,USA
Scott Haskin,/players/h/haskisc01.html,haskisc01,2.0,California,US,CA,Riverside,1994,1994,California,Beaumont,Beaumont,0,"Riverside, California",33.7219991,-116.0372472,USA
Juaquin Hawkins,/players/h/hawkiju01.html,hawkiju01,2.3,California,US,CA,Gardena,2003,2003,California,Lynwood,Lynwood,0,"Gardena, California",33.8815702,-118.2918113,USA
Chuck Hayes,/players/h/hayesch01.html,hayesch01,3.7,California,US,CA,San Leandro,2006,2016,California,Modesto,Modesto Christian,0,"San Leandro, California",37.7249296,-122.1560768,USA
J.R. Henderson,/players/h/hendejr01.html,hendejr01,3.2,California,US,CA,Bakersfield,1999,1999,California,East Bakersfield,East Bakersfield,0,"Bakersfield, California",35.3738712,-119.019463,USA
Jerome Henderson,/players/h/hendeje01.html,hendeje01,2.3,California,US,CA,Los Angeles,1986,1987,California,Los Angeles,Jefferson,0,"Los Angeles, California",34.0536909,-118.242766,USA
Conner Henry,/players/h/henryco01.html,henryco01,3.3,California,US,CA,Claremont,1987,1988,California,Claremont,Claremont,0,"Claremont, California",34.0966764,-117.7197785,USA
Cory Higgins,/players/h/higgico01.html,higgico01,3.7,California,US,CA,Danville,2012,2013,California,Danville,Monte Vista,0,"Danville, California",37.8225892,-122.0008254,USA
Sean Higgins,/players/h/higgise01.html,higgise01,6.3,California,US,CA,Los Angeles,1991,1998,California,Los Angeles,Fairfax,0,"Los Angeles, California",34.0536909,-118.242766,USA
Solomon Hill,/players/h/hillso01.html,hillso01,5.8,California,US,CA,Los Angeles,2014,2020,California,Los Angeles,Fairfax,0,"Los Angeles, California",34.0536909,-118.242766,USA
Darnell Hillman,/players/h/hillmda01.html,hillmda01,9.8,California,US,CA,Sacramento,1972,1980,California,Sacramento,Hiram Johnson,0,"Sacramento, California",38.5810606,-121.493895,USA
Jrue Holiday,/players/h/holidjr01.html,holidjr01,15.9,California,US,CA,Chatsworth,2010,2020,California,North Hollywood,Campbell Hall,1,"Chatsworth, California",34.2595715,-118.6023247,USA
Justin Holiday,/players/h/holidju01.html,holidju01,8.2,California,US,CA,Mission Hills,2013,2020,California,North Hollywood,Campbell Hall,0,"Mission Hills, California",34.687584,-120.43901754304564,USA
Ryan Hollins,/players/h/holliry01.html,holliry01,3.7,California,US,CA,Pasadena,2007,2016,California,Pasadena,John Muir,0,"Pasadena, California",34.1476507,-118.144155,USA
Tyler Honeycutt,/players/h/honeyty01.html,honeyty01,1.2,California,US,CA,Los Angeles,2012,2013,California,Sylmar,Sylmar,0,"Los Angeles, California",34.0536909,-118.242766,USA
Eddie House,/players/h/houseed01.html,houseed01,7.5,California,US,CA,Berkeley,2001,2011,California,Hayward,Hayward,0,"Berkeley, California",37.8708393,-122.272863,USA
Jay Humphries,/players/h/humphja01.html,humphja01,11.1,California,US,CA,Los Angeles,1985,1995,California,Inglewood,Inglewood,0,"Los Angeles, California",34.0536909,-118.242766,USA
Roy Hurley,/players/h/hurlero01.html,hurlero01,5.2,California,US,CA,Arcadia,1947,1947,,,,0,"Arcadia, California",34.1362075,-118.0401497,USA
Mel Hutchins,/players/h/hutchme01.html,hutchme01,11.1,California,US,CA,Sacramento,1952,1958,,,,4,"Sacramento, California",38.5810606,-121.493895,USA
Chandler Hutchison,/players/h/hutchch01.html,hutchch01,6.2,California,US,CA,Mission Viejo,2019,2020,California,Mission Viejo,Mission Viejo HS,0,"Mission Viejo, California",33.5965685,-117.659405,USA
Darrall Imhoff,/players/i/imhofda01.html,imhofda01,7.2,California,US,CA,San Gabriel,1961,1972,California,Alhambra,Alhambra,1,"San Gabriel, California",34.0990995,-118.1085554,USA
Josh Jackson,/players/j/jacksjo02.html,jacksjo02,12.1,California,US,CA,San Diego,2018,2020,California,Napa,Prolific Prep/Justin-Siena HS,0,"San Diego, California",32.7174202,-117.162772,USA
Ralph Jackson,/players/j/jacksra01.html,jacksra01,2.0,California,US,CA,Los Angeles,1985,1985,California,Inglewood,Inglewood,0,"Los Angeles, California",34.0536909,-118.242766,USA
Casey Jacobsen,/players/j/jacobca01.html,jacobca01,5.2,California,US,CA,Glendora,2003,2008,California,Glendora,Glendora,0,"Glendora, California",34.1361187,-117.865339,USA
Chris Jefferies,/players/j/jeffech01.html,jeffech01,3.9,California,US,CA,Fresno,2003,2004,California,Fresno,Washington Union,0,"Fresno, California",36.7394421,-119.78483,USA
Richard Jefferson,/players/j/jefferi01.html,jefferi01,12.6,California,US,CA,Los Angeles,2002,2018,Arizona,Phoenix,Moon Valley,0,"Los Angeles, California",34.0536909,-118.242766,USA
Brandon Jennings,/players/j/jennibr01.html,jennibr01,14.1,California,US,CA,Compton,2010,2018,Virginia,Mouth of Wilson,Oak Hill Academy,0,"Compton, California",33.894927,-118.226624,USA
Chris Jent,/players/j/jentch01.html,jentch01,6.2,California,US,CA,Orange,1994,1997,New Jersey,Sparta,Sparta,0,"Orange, California",33.750631,-117.8722311,USA
Grant Jerrett,/players/j/jerregr01.html,jerregr01,2.0,California,US,CA,Costa Mesa,2015,2015,California,La Verne,Lutheran,0,"Costa Mesa, California",33.6633386,-117.903317,USA
Eugene Jeter,/players/j/jetereu01.html,jetereu01,4.1,California,US,CA,Los Angeles,2011,2011,California,Gardena,Junipero Serra,0,"Los Angeles, California",34.0536909,-118.242766,USA
Amir Johnson,/players/j/johnsam01.html,johnsam01,7.0,California,US,CA,Los Angeles,2006,2019,California,Los Angeles,Westchester,0,"Los Angeles, California",34.0536909,-118.242766,USA
Andy Johnson,/players/j/johnsan01.html,johnsan01,9.8,California,US,CA,Los Angeles,1959,1962,California,North Hollywood,North Hollywood,0,"Los Angeles, California",34.0536909,-118.242766,USA
Dennis Johnson,/players/j/johnsde01.html,johnsde01,14.1,California,US,CA,San Pedro,1977,1990,California,Compton,Dominguez,5,"San Pedro, California",33.7358518,-118.2922934,USA
Kevin Johnson,/players/j/johnske02.html,johnske02,17.9,California,US,CA,Sacramento,1988,2000,California,Sacramento,Sacramento,3,"Sacramento, California",38.5810606,-121.493895,USA
Orlando Johnson,/players/j/johnsor01.html,johnsor01,3.2,California,US,CA,Monterey,2013,2016,California,Salinas,Palma,0,"Monterey, California",36.2231079,-121.387742,USA
Stanley Johnson,/players/j/johnsst04.html,johnsst04,6.6,California,US,CA,Los Angeles,2016,2020,California,Santa Ana,Mater Dei,0,"Los Angeles, California",34.0536909,-118.242766,USA
Bobby Jones,/players/j/jonesbo02.html,jonesbo02,3.2,California,US,CA,Compton,2007,2008,California,Long Beach,Long Beach Polytechnic,0,"Compton, California",33.894927,-118.226624,USA
Ozell Jones,/players/j/jonesoz01.html,jonesoz01,3.5,California,US,CA,Long Beach,1985,1986,California,Long Beach,Long Beach Polytechnic,0,"Long Beach, California",33.7690164,-118.191604,USA
Phil Jordon,/players/j/jordoph01.html,jordoph01,10.9,California,US,CA,Lakeport,1957,1963,,,,0,"Lakeport, California",39.0429506,-122.915829,USA
Jason Kapono,/players/k/kaponja01.html,kaponja01,6.7,California,US,CA,Long Beach,2004,2012,California,Lakewood,Artesia,0,"Long Beach, California",33.7690164,-118.191604,USA
Adam Keefe,/players/k/keefead01.html,keefead01,5.0,California,US,CA,Irvine,1993,2001,California,Irvine,Woodbridge,0,"Irvine, California",33.6856969,-117.825981,USA
Rich Kelley,/players/k/kelleri01.html,kelleri01,7.6,California,US,CA,San Mateo,1976,1986,California,Woodside,Woodside,0,"San Mateo, California",37.496904,-122.3330573,USA
Jason Kidd,/players/k/kiddja01.html,kiddja01,12.6,California,US,CA,San Francisco,1995,2013,California,Alameda,Saint Joseph of Notre Dame,10,"San Francisco, California",37.7792588,-122.4193286,USA
Kyle Korver,/players/k/korveky01.html,korveky01,9.7,California,US,CA,Lakewood,2004,2020,Iowa,Pella,Pella,1,"Lakewood, California",33.8503463,-118.117191,USA
Joel Kramer,/players/k/kramejo01.html,kramejo01,3.8,California,US,CA,San Diego,1979,1983,California,San Diego,Patrick Henry,0,"San Diego, California",32.7174202,-117.162772,USA
Frank Kudelka,/players/k/kudelfr01.html,kudelfr01,7.2,California,US,CA,San Francisco,1950,1953,California,San Francisco,Lowell,0,"San Francisco, California",37.7792588,-122.4193286,USA
Edgar Lacey,/players/l/laceyed01.html,laceyed01,5.1,California,US,CA,Los Angeles,1969,1969,California,Los Angeles,Jefferson,0,"Los Angeles, California",34.0536909,-118.242766,USA
John Lambert,/players/l/lambejo01.html,lambejo01,3.8,California,US,CA,Berkeley,1976,1982,California,Berkeley,Berkeley,0,"Berkeley, California",37.8708393,-122.272863,USA
Trajan Langdon,/players/l/langdtr01.html,langdtr01,5.4,California,US,CA,Palo Alto,2000,2002,Alaska,Anchorage,Anchorage East,0,"Palo Alto, California",37.4443293,-122.1598465,USA
Eric Leckner,/players/l/leckner01.html,leckner01,4.1,California,US,CA,Inglewood,1989,1997,California,Manhattan Beach,Mira Costa,0,"Inglewood, California",33.9562003,-118.353132,USA
David Lee,/players/l/leeda01.html,leeda01,6.4,California,US,CA,Modesto,1968,1969,,,,0,"Modesto, California",37.6393419,-120.9968892,USA
Greg Lee,/players/l/leegr01.html,leegr01,2.4,California,US,CA,Reseda,1975,1976,California,Reseda,Reseda,0,"Reseda, California",34.2006552,-118.536528,USA
Malcolm Lee,/players/l/leema01.html,leema01,3.9,California,US,CA,Riverside,2012,2015,California,Riverside,John W. North,0,"Riverside, California",33.7219991,-116.0372472,USA
Rock Lee,/players/l/leero02.html,leero02,1.0,California,US,CA,La Jolla,1982,1982,California,San Diego,Madison,0,"La Jolla, California",32.8401623,-117.2740777,USA
Kawhi Leonard,/players/l/leonaka01.html,leonaka01,18.6,California,US,CA,Los Angeles,2012,2020,California,Riverside,King,4,"Los Angeles, California",34.0536909,-118.242766,USA
Cliff Levingston,/players/l/levincl01.html,levincl01,7.1,California,US,CA,San Diego,1983,1995,California,San Diego,Samuel F.B. Morse,0,"San Diego, California",32.7174202,-117.162772,USA
Todd Lichti,/players/l/lichtto01.html,lichtto01,7.9,California,US,CA,Walnut Creek,1990,1994,California,Concord,Mount Diablo,0,"Walnut Creek, California",37.9020731,-122.0618702,USA
Damian Lillard,/players/l/lillada01.html,lillada01,24.0,California,US,CA,Oakland,2013,2020,California,Oakland,Oakland,5,"Oakland, California",37.8044557,-122.271356,USA
Jeremy Lin,/players/l/linje01.html,linje01,11.6,California,US,CA,Torrance,2011,2019,California,Palo Alto,Palo Alto,0,"Torrance, California",33.8371392,-118.3413606,USA
Ron Livingstone,/players/l/livinro01.html,livinro01,6.3,California,US,CA,Oakland,1950,1951,,,,0,"Oakland, California",37.8044557,-122.271356,USA
Rob Lock,/players/l/lockro01.html,lockro01,1.5,California,US,CA,Reedley,1989,1989,California,Reedley,Reedley,0,"Reedley, California",36.5963906,-119.4511877,USA
Don Lofgran,/players/l/lofgrdo01.html,lofgrdo01,6.1,California,US,CA,Oakland,1951,1954,California,Oakland,Oakland,0,"Oakland, California",37.8044557,-122.271356,USA
Brook Lopez,/players/l/lopezbr01.html,lopezbr01,16.8,California,US,CA,North Hollywood,2009,2020,California,Fresno,San Joaquin Memorial,1,"North Hollywood, California",34.1649502,-118.374752,USA
Robin Lopez,/players/l/lopezro01.html,lopezro01,8.8,California,US,CA,North Hollywood,2009,2020,California,Fresno,San Joaquin Memorial,0,"North Hollywood, California",34.1649502,-118.374752,USA
Jim Loscutoff,/players/l/loscuji01.html,loscuji01,6.2,California,US,CA,San Francisco,1956,1964,California,Palo Alto,Palo Alto,0,"San Francisco, California",37.7792588,-122.4193286,USA
Kevin Love,/players/l/loveke01.html,loveke01,18.2,California,US,CA,Santa Monica,2009,2020,Oregon,Lake Oswego,Lake Oswego,5,"Santa Monica, California",34.0194704,-118.491227,USA
Stan Love,/players/l/lovest01.html,lovest01,6.6,California,US,CA,Los Angeles,1972,1975,California,Inglewood,Morningside,0,"Los Angeles, California",34.0536909,-118.242766,USA
Mike Lynn,/players/l/lynnmi01.html,lynnmi01,2.6,California,US,CA,Covina,1970,1971,California,Covina,Covina,0,"Covina, California",34.0877926,-117.8891164,USA
Don MacLean,/players/m/macledo01.html,macledo01,10.9,California,US,CA,Palo Alto,1993,2001,California,Simi Valley,Simi Valley,0,"Palo Alto, California",37.4443293,-122.1598465,USA
Tito Maddox,/players/m/maddoti01.html,maddoti01,1.2,California,US,CA,Compton,2003,2003,California,Compton,Compton,0,"Compton, California",33.894927,-118.226624,USA
Gerald Madkins,/players/m/madkige01.html,madkige01,1.7,California,US,CA,Merced,1994,1998,California,Merced,Merced,0,"Merced, California",37.1641544,-120.7678602,USA
Mark Madsen,/players/m/madsema01.html,madsema01,2.2,California,US,CA,Walnut Creek,2001,2009,California,Danville,San Ramon Valley,0,"Walnut Creek, California",37.9020731,-122.0618702,USA
John Mandic,/players/m/mandijo01.html,mandijo01,4.1,California,US,CA,Los Angeles,1949,1950,,,,0,"Los Angeles, California",34.0536909,-118.242766,USA
Dan McClintock,/players/m/mcclida01.html,mcclida01,3.0,California,US,CA,Fountain Valley,2001,2001,California,Visalia,Visalia,0,"Fountain Valley, California",33.7038145,-117.9627349,USA
Jelani McCoy,/players/m/mccoyje01.html,mccoyje01,4.6,California,US,CA,Oakland,1999,2008,California,San Diego,Saint Augustine,0,"Oakland, California",37.8044557,-122.271356,USA
Ben McDonald,/players/m/mcdonbe01.html,mcdonbe01,6.0,California,US,CA,Torrance,1986,1989,California,Long Beach,Long Beach Polytechnic,0,"Torrance, California",33.8371392,-118.3413606,USA
Dominic McGuire,/players/m/mcguido01.html,mcguido01,2.7,California,US,CA,San Diego,2008,2013,California,San Diego,Lincoln,0,"San Diego, California",32.7174202,-117.162772,USA
Carlton McKinney,/players/m/mckinca01.html,mckinca01,2.4,California,US,CA,San Diego,1990,1992,Texas,Nixon,Nixon,0,"San Diego, California",32.7174202,-117.162772,USA
Jordan McLaughlin,/players/m/mclaujo01.html,mclaujo01,7.6,California,US,CA,Etiwanda,2020,2020,California,Etiwanda,Etiwanda HS,0,"Etiwanda, California",34.1261209,-117.5236622,USA
Mark McNamara,/players/m/mcnamma01.html,mcnamma01,3.5,California,US,CA,San Jose,1983,1991,California,San Jose,Del Mar,0,"San Jose, California",37.3361663,-121.890591,USA
Joe McNamee,/players/m/mcnamjo01.html,mcnamjo01,2.4,California,US,CA,San Francisco,1951,1952,California,San Francisco,Saint Ignatius,0,"San Francisco, California",37.7792588,-122.4193286,USA
Chris McNealy,/players/m/mcneach01.html,mcneach01,4.3,California,US,CA,Fresno,1986,1988,California,Fresno,Roosevelt,0,"Fresno, California",36.7394421,-119.78483,USA
De'Anthony Melton,/players/m/meltode01.html,meltode01,6.6,California,US,CA,North Hollywood,2019,2020,California,Encino,Crespi HS,0,"North Hollywood, California",34.1649502,-118.374752,USA
Chimezie Metu,/players/m/metuch01.html,metuch01,2.2,California,US,CA,Los Angeles,2019,2020,California,Lawndale,Lawndale HS,0,"Los Angeles, California",34.0536909,-118.242766,USA
Dave Meyers,/players/m/meyerda01.html,meyerda01,11.2,California,US,CA,San Diego,1976,1980,California,LaHabra,Sonora,0,"San Diego, California",32.7174202,-117.162772,USA
Vern Mikkelsen,/players/m/mikkeve01.html,mikkeve01,14.4,California,US,CA,Fresno,1950,1959,Minnesota,Askov,Askov,6,"Fresno, California",36.7394421,-119.78483,USA
Andre Miller,/players/m/millean02.html,millean02,12.5,California,US,CA,Los Angeles,2000,2016,California,Los Angeles,Verbum Dei,0,"Los Angeles, California",34.0536909,-118.242766,USA
Reggie Miller,/players/m/millere01.html,millere01,18.2,California,US,CA,Riverside,1988,2005,California,Riverside,Riverside Polytech,5,"Riverside, California",33.7219991,-116.0372472,USA
Chris Mills,/players/m/millsch01.html,millsch01,11.2,California,US,CA,Los Angeles,1994,2003,California,Los Angeles,Fairfax,0,"Los Angeles, California",34.0536909,-118.242766,USA
Harold Miner,/players/m/minerha01.html,minerha01,9.0,California,US,CA,Inglewood,1993,1996,California,Inglewood,Inglewood,0,"Inglewood, California",33.9562003,-118.353132,USA
Darius Morris,/players/m/morrida01.html,morrida01,3.3,California,US,CA,Los Angeles,2012,2015,California,Los Angeles,Windward,0,"Los Angeles, California",34.0536909,-118.242766,USA
Red Morrison,/players/m/morrire01.html,morrire01,3.6,California,US,CA,Fresno,1955,1958,Washington,Walla Walla,Walla Walla,0,"Fresno, California",36.7394421,-119.78483,USA
Richard Morton,/players/m/mortori01.html,mortori01,3.0,California,US,CA,San Francisco,1989,1989,California,San Francisco,Balboa,0,"San Francisco, California",37.7792588,-122.4193286,USA
Erwin Mueller,/players/m/mueller01.html,mueller01,7.4,California,US,CA,Livermore,1967,1974,California,Livermore,Livermore,0,"Livermore, California",37.6820583,-121.768053,USA
Shabazz Muhammad,/players/m/muhamsh01.html,muhamsh01,9.0,California,US,CA,Los Angeles,2014,2018,Nevada,Las Vegas,Bishop Gorman,0,"Los Angeles, California",34.0536909,-118.242766,USA
Chris Munk,/players/m/munkch01.html,munkch01,1.2,California,US,CA,San Francisco,1991,1991,California,San Francisco,Riordan,0,"San Francisco, California",37.7792588,-122.4193286,USA
Tod Murphy,/players/m/murphto01.html,murphto01,5.5,California,US,CA,Long Beach,1988,1994,California,Lakewood,Lakewood,0,"Long Beach, California",33.7690164,-118.191604,USA
Lamond Murray,/players/m/murrala01.html,murrala01,11.3,California,US,CA,Pasadena,1995,2006,California,Fremont,John Kennedy,0,"Pasadena, California",34.1476507,-118.144155,USA
Tracy Murray,/players/m/murratr01.html,murratr01,9.0,California,US,CA,Los Angeles,1993,2004,California,Glendora,Glendora,0,"Los Angeles, California",34.0536909,-118.242766,USA
Paul Napolitano,/players/n/napolpa01.html,napolpa01,0.0,California,US,CA,Clayton,1949,1949,,,,0,"Clayton, California",37.9411668,-121.9357878,USA
DeMarcus Nelson,/players/n/nelsode01.html,nelsode01,4.1,California,US,CA,Oakland,2009,2009,California,Sacramento,Sheldon,0,"Oakland, California",37.8044557,-122.271356,USA
Louie Nelson,/players/n/nelsolo01.html,nelsolo01,9.4,California,US,CA,Los Angeles,1974,1978,California,Los Angeles,Compton,0,"Los Angeles, California",34.0536909,-118.242766,USA
Bob Netolicky,/players/n/netolbo01.html,netolbo01,16.0,California,US,CA,San Francisco,1968,1976,Iowa,Cedar Rapids,Washington,4,"San Francisco, California",37.7792588,-122.4193286,USA
Mike Niles,/players/n/nilesmi01.html,nilesmi01,2.6,California,US,CA,Los Angeles,1981,1981,California,Los Angeles,Jefferson,0,"Los Angeles, California",34.0536909,-118.242766,USA
James Nunnally,/players/n/nunnaja01.html,nunnaja01,2.9,California,US,CA,San Jose,2014,2019,California,Stockton,Weston Ranch,0,"San Jose, California",37.3361663,-121.890591,USA
David Nwaba,/players/n/nwabada01.html,nwabada01,6.9,California,US,CA,Los Angeles,2017,2020,California,Los Angeles,University High School,0,"Los Angeles, California",34.0536909,-118.242766,USA
Charles O'Bannon,/players/o/obannch01.html,obannch01,2.5,California,US,CA,Bellflower,1998,1999,California,Lakewood,Artesia,0,"Bellflower, California",33.8825705,-118.1167679,USA
Ed O'Bannon,/players/o/obanned01.html,obanned01,5.0,California,US,CA,Los Angeles,1996,1997,California,Lakewood,Artesia,0,"Los Angeles, California",34.0536909,-118.242766,USA
J.J. O'Brien,/players/o/obriejj01.html,obriejj01,0.0,California,US,CA,San Diego,2016,2016,California,Rancho Cucamonga,Alta Loma,0,"San Diego, California",32.7174202,-117.162772,USA
Dick O'Keefe,/players/o/okeefdi01.html,okeefdi01,5.2,California,US,CA,San Francisco,1948,1951,,,,0,"San Francisco, California",37.7792588,-122.4193286,USA
Mike O'Neill,/players/o/oneilmi01.html,oneilmi01,3.0,California,US,CA,Berkeley,1953,1953,,,,0,"Berkeley, California",37.8708393,-122.272863,USA
Kevin O'Shea,/players/o/osheake01.html,osheake01,5.2,California,US,CA,San Francisco,1951,1953,California,San Francisco,Saint Ignatius,0,"San Francisco, California",37.7792588,-122.4193286,USA
Bud Ogden,/players/o/ogdenbu01.html,ogdenbu01,3.5,California,US,CA,San Luis Obispo,1970,1971,California,San Jose,Lincoln,0,"San Luis Obispo, California",35.3540209,-120.375716,USA
KZ Okpala,/players/o/okpalkz01.html,okpalkz01,1.4,California,US,CA,Orange County,2020,2020,California,Anaheim,Esperanza,0,"Orange County, California",33.750631,-117.8722311,USA
Miye Oni,/players/o/onimi01.html,onimi01,0.0,California,US,CA,Los Angeles,2020,2020,California,Calabasas,Viewpoint,0,"Los Angeles, California",34.0536909,-118.242766,USA
Jim Owens,/players/o/owensji01.html,owensji01,3.1,California,US,CA,Los Angeles,1974,1975,California,Los Angeles,South Torrance,0,"Los Angeles, California",34.0536909,-118.242766,USA
Keith Owens,/players/o/owenske01.html,owenske01,1.3,California,US,CA,San Francisco,1992,1992,California,Van Nuys,Birmingham,0,"San Francisco, California",37.7792588,-122.4193286,USA
Ray Owes,/players/o/owesra01.html,owesra01,3.1,California,US,CA,San Bernardino,1997,1997,California,San Bernardino,San Bernardino,0,"San Bernardino, California",34.8253019,-116.0833144,USA
Milt Palacio,/players/p/palacmi01.html,palacmi01,4.8,California,US,CA,Los Angeles,2000,2006,California,Gardena,Junipero Serra,0,"Los Angeles, California",34.0536909,-118.242766,USA
Bud Palmer,/players/p/palmebu01.html,palmebu01,11.7,California,US,CA,Hollywood,1947,1949,New Hampshire,Exeter,Phillips-Exeter Academy,0,"Hollywood, California",34.0980031,-118.329523,USA
Cherokee Parks,/players/p/parksch02.html,parksch02,4.4,California,US,CA,Huntington Beach,1996,2004,California,Huntington Beach,Marina,0,"Huntington Beach, California",33.6783336,-118.000016,USA
Andrae Patterson,/players/p/pattean01.html,pattean01,3.0,California,US,CA,Riverside,1999,2000,Texas,Abilene,Cooper,0,"Riverside, California",33.7219991,-116.0372472,USA
Steve Patterson,/players/p/pattest01.html,pattest01,4.4,California,US,CA,Riverside,1972,1976,California,Riverside,Santa Maria,0,"Riverside, California",33.7219991,-116.0372472,USA
Tom Payne,/players/p/payneto01.html,payneto01,4.1,California,US,CA,,1972,1972,Kentucky,Louisville,Shawnee,0,,46.3144754,11.0480288,USA
Gary Payton,/players/p/paytoga01.html,paytoga01,16.3,California,US,CA,Oakland,1991,2007,California,Oakland,Skyline,9,"Oakland, California",37.8044557,-122.271356,USA
Mike Penberthy,/players/p/penbemi01.html,penbemi01,4.9,California,US,CA,Los Gatos,2001,2002,California,Fresno,Hoover,0,"Los Gatos, California",37.226611,-121.9746797,USA
Desmond Penigar,/players/p/penigde01.html,penigde01,3.2,California,US,CA,Upland,2004,2004,California,Upland,Upland,0,"Upland, California",34.09751,-117.6483876,USA
London Perrantes,/players/p/perralo01.html,perralo01,0.5,California,US,CA,Los Angeles,2018,2018,California,Encino,Crespi Carmelite,0,"Los Angeles, California",34.0536909,-118.242766,USA
Bob Peterson,/players/p/peterbo01.html,peterbo01,4.7,California,US,CA,San Mateo,1954,1956,,,,0,"San Mateo, California",37.496904,-122.3330573,USA
Paul Pierce,/players/p/piercpa01.html,piercpa01,19.7,California,US,CA,Oakland,1999,2017,California,Inglewood,Inglewood,10,"Oakland, California",37.8044557,-122.271356,USA
Kevinn Pinkney,/players/p/pinknke01.html,pinknke01,5.2,California,US,CA,Colton,2007,2007,California,Colton,Colton,0,"Colton, California",34.0739016,-117.3136547,USA
Dwayne Polee,/players/p/poleedw01.html,poleedw01,2.0,California,US,CA,Los Angeles,1987,1987,California,Los Angeles,Manual Arts,0,"Los Angeles, California",34.0536909,-118.242766,USA
Jim Pollard,/players/p/pollaji01.html,pollaji01,13.2,California,US,CA,Oakland,1949,1955,California,Oakland,Oakland Technical,4,"Oakland, California",37.8044557,-122.271356,USA
Ralph Polson,/players/p/polsora01.html,polsora01,3.9,California,US,CA,Riverside,1953,1953,,,,0,"Riverside, California",33.7219991,-116.0372472,USA
Cliff Pondexter,/players/p/pondecl01.html,pondecl01,3.9,California,US,CA,Fresno,1976,1978,California,Fresno,San Joaquin Memorial,0,"Fresno, California",36.7394421,-119.78483,USA
Quincy Pondexter,/players/p/pondequ01.html,pondequ01,4.5,California,US,CA,Fresno,2011,2019,California,Fresno,San Joaquin Memorial,0,"Fresno, California",36.7394421,-119.78483,USA
Bob Portman,/players/p/portmbo01.html,portmbo01,5.7,California,US,CA,San Francisco,1970,1973,California,San Francisco,Saint Ignatius,0,"San Francisco, California",37.7792588,-122.4193286,USA
Leon Powe,/players/p/powele01.html,powele01,6.2,California,US,CA,Berkeley,2007,2011,California,Oakland,Oakland Technical,0,"Berkeley, California",37.8708393,-122.272863,USA
Norman Powell,/players/p/powelno01.html,powelno01,8.5,California,US,CA,San Diego,2016,2020,California,San Diego,Lincoln,0,"San Diego, California",32.7174202,-117.162772,USA
Tayshaun Prince,/players/p/princta01.html,princta01,11.1,California,US,CA,Compton,2003,2016,California,Compton,Dominguez,0,"Compton, California",33.894927,-118.226624,USA
Gabe Pruitt,/players/p/pruitga01.html,pruitga01,2.0,California,US,CA,Los Angeles,2008,2009,California,Los Angeles,Westchester,0,"Los Angeles, California",34.0536909,-118.242766,USA
Ivan Rabb,/players/r/rabbiv01.html,rabbiv01,5.7,California,US,CA,Sacramento,2018,2019,California,Oakland,Bishop O'Dowd,0,"Sacramento, California",38.5810606,-121.493895,USA
Kurt Rambis,/players/r/rambiku01.html,rambiku01,5.2,California,US,CA,Cupertino,1982,1995,California,Cupertino,Cupertino,0,"Cupertino, California",37.3228934,-122.0322895,USA
Wally Rank,/players/r/rankwa01.html,rankwa01,2.2,California,US,CA,Fort Ord,1981,1981,California,Carson,Carson,0,"Fort Ord, California",36.609196,-121.75922458558232,USA
Marlon Redmond,/players/r/redmoma01.html,redmoma01,6.5,California,US,CA,San Francisco,1979,1980,California,San Francisco,Balboa,0,"San Francisco, California",37.7792588,-122.4193286,USA
Kevin Restani,/players/r/restake01.html,restake01,6.2,California,US,CA,San Francisco,1975,1982,California,San Francisco,Riordan,0,"San Francisco, California",37.7792588,-122.4193286,USA
Isaiah Rider,/players/r/rideris01.html,rideris01,16.7,California,US,CA,Oakland,1994,2002,California,Alameda,Encinal,0,"Oakland, California",37.8044557,-122.271356,USA
Ron Riley,/players/r/rileyro01.html,rileyro01,5.8,California,US,CA,Los Angeles,1973,1976,California,Los Angeles,Jordan,0,"Los Angeles, California",34.0536909,-118.242766,USA
Austin Rivers,/players/r/riverau01.html,riverau01,9.1,California,US,CA,Santa Monica,2013,2020,Florida,Winter Park,Winter Park,0,"Santa Monica, California",34.0194704,-118.491227,USA
Cliff Robinson,/players/r/robincl01.html,robincl01,17.2,California,US,CA,Oakland,1980,1992,California,Oakland,Castlemont,0,"Oakland, California",37.8044557,-122.271356,USA
Jackie Robinson,/players/r/robinja01.html,robinja01,3.8,California,US,CA,Los Angeles,1979,1982,California,Inglewood,Morningside,0,"Los Angeles, California",34.0536909,-118.242766,USA
Samuel Robinson,/players/r/robinsa01.html,robinsa01,9.1,California,US,CA,Los Angeles,1971,1972,California,Los Angeles,Jefferson,0,"Los Angeles, California",34.0536909,-118.242766,USA
Jack Rocker,/players/r/rockeja01.html,rockeja01,1.9,California,US,CA,Lindsay,1948,1948,California,Lindsay,Lindsay,0,"Lindsay, California",36.2030064,-119.08816,USA
Johnny Rogers,/players/r/rogerjo01.html,rogerjo01,3.6,California,US,CA,Fullerton,1987,1988,California,Westminster,LaQuinta,0,"Fullerton, California",33.8708215,-117.929416,USA
Lorenzo Romar,/players/r/romarlo01.html,romarlo01,5.9,California,US,CA,South Gate,1981,1985,California,Downey,Saint Pius X,0,"South Gate, California",33.9463456,-118.200981,USA
John Rudometkin,/players/r/rudomjo01.html,rudomjo01,6.3,California,US,CA,Santa Maria,1963,1965,California,Santa Maria,Santa Maria,0,"Santa Maria, California",34.9531295,-120.435857,USA
Paul Ruffner,/players/r/ruffnpa01.html,ruffnpa01,4.2,California,US,CA,Downey,1971,1976,California,Santa Monica,Earl Warren,0,"Downey, California",33.9404441,-118.1292846,USA
Bob Rule,/players/r/rulebo01.html,rulebo01,17.4,California,US,CA,Riverside,1968,1975,California,Riverside,Riverside Polytech,1,"Riverside, California",33.7219991,-116.0372472,USA
Bryon Russell,/players/r/russebr01.html,russebr01,7.9,California,US,CA,San Bernardino,1994,2006,California,San Bernardino,San Bernardino,0,"San Bernardino, California",34.8253019,-116.0833144,USA
Jamal Sampson,/players/s/sampsja01.html,sampsja01,2.0,California,US,CA,Inglewood,2003,2007,California,Santa Ana,Mater Dei,0,"Inglewood, California",33.9562003,-118.353132,USA
Alan Sawyer,/players/s/sawyeal01.html,sawyeal01,6.6,California,US,CA,Long Beach,1951,1951,,,,0,"Long Beach, California",33.7690164,-118.191604,USA
Brian Scalabrine,/players/s/scalabr01.html,scalabr01,3.1,California,US,CA,Long Beach,2002,2012,Washington,Enumclaw,Enumclaw,0,"Long Beach, California",33.7690164,-118.191604,USA
Fred Scolari,/players/s/scolafr01.html,scolafr01,11.3,California,US,CA,San Francisco,1947,1955,California,San Francisco,Galileo,2,"San Francisco, California",37.7792588,-122.4193286,USA
Paul Scranton,/players/s/scranpa01.html,scranpa01,1.8,California,US,CA,Los Angeles,1968,1968,California,Los Angeles,Jordan,0,"Los Angeles, California",34.0536909,-118.242766,USA
Kenny Sears,/players/s/searske01.html,searske01,13.9,California,US,CA,Watsonville,1956,1964,California,Watsonville,Watsonville Union,2,"Watsonville, California",36.9092773,-121.7529071,USA
Jim Seminoff,/players/s/seminji01.html,seminji01,6.5,California,US,CA,Los Angeles,1947,1950,California,Los Angeles,Roosevelt,0,"Los Angeles, California",34.0536909,-118.242766,USA
Brian Shaw,/players/s/shawbr01.html,shawbr01,6.9,California,US,CA,Oakland,1989,2003,California,Oakland,Bishop O'Dowd,0,"Oakland, California",37.8044557,-122.271356,USA
Lonnie Shelton,/players/s/sheltlo01.html,sheltlo01,12.0,California,US,CA,Bakersfield,1977,1986,California,Bakersfield,Foothill,1,"Bakersfield, California",35.3738712,-119.019463,USA
Jose Slaughter,/players/s/slaugjo01.html,slaugjo01,3.6,California,US,CA,Los Angeles,1983,1983,California,Compton,Compton,0,"Los Angeles, California",34.0536909,-118.242766,USA
Craig Smith,/players/s/smithcr01.html,smithcr01,7.6,California,US,CA,Inglewood,2007,2012,California,Los Angeles,Fairfax,0,"Inglewood, California",33.9562003,-118.353132,USA
Greg Smith,/players/s/smithgr02.html,smithgr02,4.0,California,US,CA,Vallejo,2012,2016,Arizona,Phoenix,Westwind Academy,0,"Vallejo, California",38.1040864,-122.2566367,USA
Phil Smith,/players/s/smithph01.html,smithph01,15.1,California,US,CA,San Francisco,1975,1983,California,San Francisco,Washington,2,"San Francisco, California",37.7792588,-122.4193286,USA
Reggie Smith,/players/s/smithre01.html,smithre01,1.5,California,US,CA,San Jose,1993,1994,California,San Jose,Leland,0,"San Jose, California",37.3361663,-121.890591,USA
Robert Smith,/players/s/smithro01.html,smithro01,5.0,California,US,CA,Los Angeles,1978,1985,California,Los Angeles,Crenshaw,0,"Los Angeles, California",34.0536909,-118.242766,USA
Tony Snell,/players/s/snellto01.html,snellto01,6.5,California,US,CA,Los Angeles,2014,2020,California,Riverside,King,0,"Los Angeles, California",34.0536909,-118.242766,USA
Kirk Snyder,/players/s/snydeki01.html,snydeki01,6.3,California,US,CA,Los Angeles,2005,2008,California,Upland,Upland,0,"Los Angeles, California",34.0536909,-118.242766,USA
Andre Spencer,/players/s/spencan01.html,spencan01,7.2,California,US,CA,Stockton,1993,1994,California,Los Angeles,Manual Arts,0,"Stockton, California",37.9577016,-121.290779,USA
Joe Stephens,/players/s/stephjo01.html,stephjo01,3.2,California,US,CA,Riverside,1997,2000,Texas,Houston,North Shore,0,"Riverside, California",33.7219991,-116.0372472,USA
Alex Stepheson,/players/s/stephal01.html,stephal01,2.8,California,US,CA,Los Angeles,2016,2016,California,North Hollywood,Harvard-Westlake,0,"Los Angeles, California",34.0536909,-118.242766,USA
DeShawn Stevenson,/players/s/stevede01.html,stevede01,7.2,California,US,CA,Fresno,2001,2013,California,Fresno,Washington Union,0,"Fresno, California",36.7394421,-119.78483,USA
Derek Strong,/players/s/stronde01.html,stronde01,6.8,California,US,CA,Los Angeles,1992,2001,California,Pacific Palisades,Pacific Palisades,0,"Los Angeles, California",34.0536909,-118.242766,USA
Dane Suttle,/players/s/suttlda01.html,suttlda01,5.9,California,US,CA,Los Angeles,1984,1985,California,Los Angeles,John C. Fremont,0,"Los Angeles, California",34.0536909,-118.242766,USA
Greg Sutton,/players/s/suttogr01.html,suttogr01,4.5,California,US,CA,Santa Cruz,1992,1996,Oklahoma,Oklahoma City,Douglass,0,"Santa Cruz, California",37.050096,-121.99059,USA
Keith Swagerty,/players/s/swageke01.html,swageke01,12.3,California,US,CA,San Jose,1969,1970,California,San Jose,Camden,0,"San Jose, California",37.3361663,-121.890591,USA
Robert Swift,/players/s/swiftro01.html,swiftro01,4.3,California,US,CA,Bakersfield,2005,2009,California,Bakersfield,Bakersfield,0,"Bakersfield, California",35.3738712,-119.019463,USA
Anthony Taylor,/players/t/tayloan01.html,tayloan01,6.9,California,US,CA,Los Angeles,1989,1989,Oregon,Beaverton,Beaverton,0,"Los Angeles, California",34.0536909,-118.242766,USA
Isaiah Taylor,/players/t/taylois01.html,taylois01,6.3,California,US,CA,Hayward,2017,2018,Texas,Houston,The Village School,0,"Hayward, California",37.6688205,-122.080796,USA
Leonard Taylor,/players/t/taylole01.html,taylole01,1.1,California,US,CA,Los Angeles,1990,1990,California,Playa del Rey,Saint Bernard,0,"Los Angeles, California",34.0536909,-118.242766,USA
Ronald Taylor,/players/t/tayloro01.html,tayloro01,4.8,California,US,CA,Torrance,1970,1972,California,Torrance,North Torrance,0,"Torrance, California",33.8371392,-118.3413606,USA
Chuck Terry,/players/t/terrych01.html,terrych01,3.8,California,US,CA,Long Beach,1973,1977,,,,0,"Long Beach, California",33.7690164,-118.191604,USA
Claude Terry,/players/t/terrycl01.html,terrycl01,5.5,California,US,CA,Salida,1973,1978,,,,1,"Salida, California",37.7151375,-121.08667876282566,USA
Reggie Theus,/players/t/theusre01.html,theusre01,18.5,California,US,CA,Inglewood,1979,1991,California,Inglewood,Inglewood,2,"Inglewood, California",33.9562003,-118.353132,USA
Peter Thibeaux,/players/t/thibepe01.html,thibepe01,5.0,California,US,CA,Los Angeles,1985,1986,California,Oakland,Skyline,0,"Los Angeles, California",34.0536909,-118.242766,USA
Dijon Thompson,/players/t/thompdi01.html,thompdi01,2.8,California,US,CA,Los Angeles,2006,2007,California,Redondo Beach,Redondo Union,0,"Los Angeles, California",34.0536909,-118.242766,USA
Hollis Thompson,/players/t/thompho01.html,thompho01,7.7,California,US,CA,Pasadena,2014,2017,California,Los Angeles,Loyola,0,"Pasadena, California",34.1476507,-118.144155,USA
Klay Thompson,/players/t/thompkl01.html,thompkl01,19.5,California,US,CA,Los Angeles,2012,2019,California,Rancho Santa Margarita,Santa Margarita Catholic,5,"Los Angeles, California",34.0536909,-118.242766,USA
Mychel Thompson,/players/t/thompmy02.html,thompmy02,3.6,California,US,CA,Los Angeles,2012,2012,California,Rancho Santa Margarita,Santa Margarita,0,"Los Angeles, California",34.0536909,-118.242766,USA
Stephen Thompson,/players/t/thompst01.html,thompst01,1.6,California,US,CA,Los Angeles,1992,1992,California,Los Angeles,Crenshaw,0,"Los Angeles, California",34.0536909,-118.242766,USA
Bob Thornton,/players/t/thornbo01.html,thornbo01,3.0,California,US,CA,Los Angeles,1986,1996,California,Mission Viejo,Mission Viejo,0,"Los Angeles, California",34.0536909,-118.242766,USA
Tom Tolbert,/players/t/tolbeto01.html,tolbeto01,6.5,California,US,CA,Long Beach,1989,1995,California,Lakewood,Artesia HS,0,"Long Beach, California",33.7690164,-118.191604,USA
Jack Toomay,/players/t/toomaja01.html,toomaja01,6.7,California,US,CA,Ontario,1948,1950,,,,0,"Ontario, California",34.065846,-117.64843,USA
Juan Toscano-Anderson,/players/t/toscaju01.html,toscaju01,5.3,California,US,CA,Oakland,2020,2020,California,Castro Valley,Castro Valley HS,0,"Oakland, California",37.8044557,-122.271356,USA
Raymond Townsend,/players/t/townsra01.html,townsra01,4.8,California,US,CA,San Jose,1979,1982,California,San Jose,Camden,0,"San Jose, California",37.3361663,-121.890591,USA
Jeff Trepagnier,/players/t/trepaje01.html,trepaje01,2.8,California,US,CA,Los Angeles,2002,2004,California,Compton,Compton,0,"Los Angeles, California",34.0536909,-118.242766,USA
John Tschogl,/players/t/tschojo01.html,tschojo01,2.5,California,US,CA,Chula Vista,1973,1975,California,Chula Vista,Hilltop,0,"Chula Vista, California",32.6400541,-117.084195,USA
Henry Turner,/players/t/turnehe02.html,turnehe02,3.4,California,US,CA,Oakland,1990,1995,California,Oakland,Fremont,0,"Oakland, California",37.8044557,-122.271356,USA
Jeremy Tyler,/players/t/tylerje01.html,tylerje01,3.6,California,US,CA,San Diego,2012,2014,California,San Diego,San Diego,0,"San Diego, California",32.7174202,-117.162772,USA
Jan van Breda Kolff,/players/v/vanbrja01.html,vanbrja01,6.2,California,US,CA,Palos Verdes,1975,1983,California,Rancho Palos Verdes,Palos Verdes,0,"Palos Verdes, California",33.7483311,-118.3707683,USA
Keith Van Horn,/players/v/vanhoke01.html,vanhoke01,16.0,California,US,CA,Fullerton,1998,2006,California,Diamond Bar,Diamond Bar,0,"Fullerton, California",33.8708215,-117.929416,USA
Nick Vanos,/players/v/vanosni01.html,vanosni01,3.3,California,US,CA,San Mateo,1986,1987,California,San Mateo,Hillsdale,0,"San Mateo, California",37.496904,-122.3330573,USA
Jacque Vaughn,/players/v/vaughja01.html,vaughja01,4.5,California,US,CA,Los Angeles,1998,2009,California,Pasadena,John Muir,0,"Los Angeles, California",34.0536909,-118.242766,USA
Pete Verhoeven,/players/v/verhope01.html,verhope01,3.5,California,US,CA,Hanford,1982,1987,California,Hanford,Hanford,0,"Hanford, California",36.3274502,-119.6456844,USA
Gabe Vincent,/players/v/vincega01.html,vincega01,2.0,California,US,CA,Modesto,2020,2020,California,Stockton,St. Mary's HS,0,"Modesto, California",37.6393419,-120.9968892,USA
Brett Vroman,/players/v/vromabr01.html,vromabr01,3.1,California,US,CA,Hollywood,1981,1981,Utah,Provo,Provo,0,"Hollywood, California",34.0980031,-118.329523,USA
Jackson Vroman,/players/v/vromaja01.html,vromaja01,3.3,California,US,CA,Laguna,2005,2006,Utah,Bountiful,Viewmont,0,"Laguna, California",38.4210209,-121.4238414,USA
Mark Wade,/players/w/wadema01.html,wadema01,0.7,California,US,CA,Torrance,1988,1990,California,Los Angeles,Banning,0,"Torrance, California",33.8371392,-118.3413606,USA
Tyrone Wallace,/players/w/wallaty01.html,wallaty01,5.2,California,US,CA,Bakersfield,2018,2020,California,Bakersfield,Bakersfield,0,"Bakersfield, California",35.3738712,-119.019463,USA
Jim Walsh,/players/w/walshji01.html,walshji01,2.0,California,US,CA,San Francisco,1958,1958,,,,0,"San Francisco, California",37.7792588,-122.4193286,USA
Bill Walton,/players/w/waltobi01.html,waltobi01,13.3,California,US,CA,La Mesa,1975,1987,California,La Mesa,Helix,2,"La Mesa, California",32.7678288,-117.0230839,USA
Luke Walton,/players/w/waltolu01.html,waltolu01,4.7,California,US,CA,San Diego,2004,2013,California,San Diego,University,0,"San Diego, California",32.7174202,-117.162772,USA
Casper Ware,/players/w/wareca01.html,wareca01,5.3,California,US,CA,Cerritos,2014,2014,California,Cerritos,Gahr,0,"Cerritos, California",33.8644291,-118.0539323,USA
David Wear,/players/w/wearda01.html,wearda01,0.0,California,US,CA,Long Beach,2015,2015,California,Santa Ana,Mater Dei,0,"Long Beach, California",33.7690164,-118.191604,USA
Travis Wear,/players/w/weartr01.html,weartr01,4.0,California,US,CA,Long Beach,2015,2018,California,Santa Ana,Mater Dei,0,"Long Beach, California",33.7690164,-118.191604,USA
Thomas Welsh,/players/w/welshth01.html,welshth01,1.6,California,US,CA,Torrance,2019,2019,California,Los Angeles,Loyola HS,0,"Torrance, California",33.8371392,-118.3413606,USA
Russell Westbrook,/players/w/westbru01.html,westbru01,23.2,California,US,CA,Long Beach,2009,2020,California,Lawndale,Leuzinger,9,"Long Beach, California",33.7690164,-118.191604,USA
Paul Westphal,/players/w/westppa01.html,westppa01,15.6,California,US,CA,Torrance,1973,1984,California,Redondo Beach,Aviation,5,"Torrance, California",33.8371392,-118.3413606,USA
Eric White,/players/w/whiteer01.html,whiteer01,6.1,California,US,CA,San Francisco,1988,1989,California,San Francisco,Sacred Heart,0,"San Francisco, California",37.7792588,-122.4193286,USA
Sidney Wicks,/players/w/wickssi01.html,wickssi01,16.8,California,US,CA,Los Angeles,1972,1981,California,Los Angeles,Hamilton,4,"Los Angeles, California",34.0536909,-118.242766,USA
Michael Wiley,/players/w/wileymi01.html,wileymi01,7.4,California,US,CA,Long Beach,1981,1982,California,Long Beach,Long Beach Polytechnic,0,"Long Beach, California",33.7690164,-118.191604,USA
Jamaal Wilkes,/players/w/wilkeja01.html,wilkeja01,17.7,California,US,CA,Berkeley,1975,1986,California,Santa Barbara,Santa Barbara,3,"Berkeley, California",37.8708393,-122.272863,USA
Derrick Williams,/players/w/willide02.html,willide02,8.9,California,US,CA,Bellflower,2012,2018,California,La Mirada,La Mirada,0,"Bellflower, California",33.8825705,-118.1167679,USA
Freeman Williams,/players/w/willifr01.html,willifr01,14.7,California,US,CA,Los Angeles,1979,1986,California,Los Angeles,Manual Arts,0,"Los Angeles, California",34.0536909,-118.242766,USA
Gene Williams,/players/w/willige01.html,willige01,0.0,California,US,CA,San Francisco,1970,1970,California,San Francisco,Galileo,0,"San Francisco, California",37.7792588,-122.4193286,USA
Guy Williams,/players/w/willigu02.html,willigu02,2.6,California,US,CA,Los Angeles,1985,1986,California,Oakland,Bishop O'Dowd,0,"Los Angeles, California",34.0536909,-118.242766,USA
John Williams,/players/w/willijo02.html,willijo02,10.1,California,US,CA,Los Angeles,1987,1995,California,Los Angeles,Crenshaw,0,"Los Angeles, California",34.0536909,-118.242766,USA
Marcus Williams,/players/w/willima03.html,willima03,5.6,California,US,CA,Los Angeles,2007,2010,Virginia,Mouth of Wilson,Oak Hill Academy,0,"Los Angeles, California",34.0536909,-118.242766,USA
Pete Williams,/players/w/willipe01.html,willipe01,2.6,California,US,CA,Harbor City,1986,1987,California,Walnut,Nogales,0,"Harbor City, California",33.7911012,-118.3012604,USA
Sam Williams,/players/w/willisa02.html,willisa02,6.3,California,US,CA,Los Angeles,1982,1985,California,Los Angeles,Westchester,0,"Los Angeles, California",34.0536909,-118.242766,USA
Scott Williams,/players/w/willisc01.html,willisc01,5.1,California,US,CA,Hacienda Heights,1991,2005,California,Hacienda Heights,Glen A. Wilson,0,"Hacienda Heights, California",33.9930677,-117.968675,USA
Kevin Willis,/players/w/willike02.html,willike02,12.1,California,US,CA,Los Angeles,1985,2007,Michigan,Detroit,Pershing,1,"Los Angeles, California",34.0536909,-118.242766,USA
D.J. Wilson,/players/w/wilsodj01.html,wilsodj01,4.0,California,US,CA,Mount Shasta,2018,2020,California,Sacramento,Capital Christian,0,"Mount Shasta, California",41.4091977,-122.1948645,USA
Trevor Wilson,/players/w/wilsotr01.html,wilsotr01,5.7,California,US,CA,Los Angeles,1991,1996,California,Reseda,Cleveland,0,"Los Angeles, California",34.0536909,-118.242766,USA
Willie Wise,/players/w/wisewi01.html,wisewi01,17.6,California,US,CA,San Francisco,1970,1978,California,San Francisco,Balboa,3,"San Francisco, California",37.7792588,-122.4193286,USA
Jeff Withey,/players/w/witheje01.html,witheje01,3.2,California,US,CA,San Diego,2014,2018,California,San Diego,Horizon,0,"San Diego, California",32.7174202,-117.162772,USA
Christian Wood,/players/w/woodch01.html,woodch01,9.5,California,US,CA,Long Beach,2016,2020,Nevada,Henderson,Findlay College Prep,0,"Long Beach, California",33.7690164,-118.191604,USA
Antoine Wright,/players/w/wrighan01.html,wrighan01,5.4,California,US,CA,West Covina,2006,2011,Massachusetts,Groton,Lawrence Academy,0,"West Covina, California",34.0686208,-117.9389526,USA
Brad Wright,/players/w/wrighbr01.html,wrighbr01,3.4,California,US,CA,Hollywood,1987,1988,California,Los Angeles,Murphy,0,"Hollywood, California",34.0980031,-118.329523,USA
Delon Wright,/players/w/wrighde01.html,wrighde01,7.4,California,US,CA,Los Angeles,2016,2020,California,Lawndale,Leuzinger,0,"Los Angeles, California",34.0536909,-118.242766,USA
Dorell Wright,/players/w/wrighdo01.html,wrighdo01,8.4,California,US,CA,Los Angeles,2005,2015,Connecticut,South Kent,South Kent School,0,"Los Angeles, California",34.0536909,-118.242766,USA
Howard Wright,/players/w/wrighho02.html,wrighho02,3.3,California,US,CA,San Diego,1991,1993,California,San Diego,Patrick Henry,0,"San Diego, California",32.7174202,-117.162772,USA
George Yardley,/players/y/yardlge01.html,yardlge01,19.2,California,US,CA,Hollywood,1954,1960,California,Newport Beach,Newport Harbor,6,"Hollywood, California",34.0980031,-118.329523,USA
Nick Young,/players/y/youngni01.html,youngni01,11.4,California,US,CA,Los Angeles,2008,2019,California,Reseda,Cleveland,0,"Los Angeles, California",34.0536909,-118.242766,USA
Tim Young,/players/y/youngti01.html,youngti01,2.2,California,US,CA,Santa Cruz,2000,2000,California,Santa Cruz,Harbor,0,"Santa Cruz, California",37.050096,-121.99059,USA
Tyler Zeller,/players/z/zellety01.html,zellety01,7.0,California,US,CA,Visalia,2013,2019,Indiana,Washington,Washington,0,"Visalia, California",36.3302284,-119.292058,USA
Chauncey Billups,/players/b/billuch01.html,billuch01,15.2,Colorado,US,CO,Denver,1998,2014,Colorado,Denver,George Washington,5,"Denver, Colorado",39.7392364,-104.984862,USA
Kaniel Dickens,/players/d/dickeka01.html,dickeka01,1.2,Colorado,US,CO,Denver,2004,2008,Colorado,Denver,East,0,"Denver, Colorado",39.7392364,-104.984862,USA
Bob Doll,/players/d/dollbo01.html,dollbo01,8.4,Colorado,US,CO,Steamboat Springs,1947,1950,,,,0,"Steamboat Springs, Colorado",40.4848003,-106.831735,USA
Nick Fazekas,/players/f/fazekni01.html,fazekni01,4.1,Colorado,US,CO,Denver,2008,2008,Colorado,Arvada,Ralston Valley,0,"Denver, Colorado",39.7392364,-104.984862,USA
Eddie Gill,/players/g/gilled01.html,gilled01,3.1,Colorado,US,CO,Aurora,2001,2009,Colorado,Aurora,Overland,0,"Aurora, Colorado",39.7405111,-104.830994,USA
Glen Gondrezick,/players/g/gondrgl01.html,gondrgl01,5.8,Colorado,US,CO,Boulder,1978,1983,Colorado,Boulder,Boulder,0,"Boulder, Colorado",40.0149856,-105.270545,USA
Grant Gondrezick,/players/g/gondrgr01.html,gondrgr01,5.0,Colorado,US,CO,Boulder,1987,1989,Colorado,Boulder,Boulder,0,"Boulder, Colorado",40.0149856,-105.270545,USA
Tom Hovasse,/players/h/hovasto01.html,hovasto01,0.0,Colorado,US,CO,Durango,1995,1995,Colorado,Security,Widefield,0,"Durango, Colorado",37.2769484,-107.8766,USA
Joe Kleine,/players/k/kleinjo01.html,kleinjo01,4.8,Colorado,US,CO,Colorado Springs,1986,2000,Missouri,Slater,Slater,0,"Colorado Springs, Colorado",38.8339578,-104.825348,USA
Darrick Martin,/players/m/martida01.html,martida01,6.9,Colorado,US,CO,Denver,1995,2008,California,Long Beach,Saint Anthony,0,"Denver, Colorado",39.7392364,-104.984862,USA
Eric McWilliams,/players/m/mcwiler01.html,mcwiler01,2.0,Colorado,US,CO,Denver,1973,1973,,,,0,"Denver, Colorado",39.7392364,-104.984862,USA
